nom,region,departement,sous_prefecture,latitude,longitude,population
"Tiassalé","","","","5.8956463","-4.8250584","83648"
"Akoupé","","","","6.3815237","-3.8859041","51000"
"Bangolo","","","","7.0119038","-7.4867606","20000"
"Touba","","","","8.2840981","-7.6818105","30000"
"Odienné","","","","9.504431","-7.561942","86279"
"Niellé","","","","10.1979006","-5.6249349",""
"Agnibilékrou","","","","7.1279945","-3.2015318","99501"
"Zépréguhé","","","","6.9064729","-6.3703769",""
"Grand-Lahou","","","","5.2503434","-5.0024449","77479"
"Béoumi","","","","7.6745381","-5.5827323","25000"
"Doropo","","","","9.8095188","-3.3458764","48225"
"Varalé","","","","9.6586821","-3.279831",""
"Bouko","","","","9.4790227","-3.1722548",""
"Soko","","","","7.9895353","-2.7428298","6000"
"Morifingso","","","","8.5433108","-7.2736011",""
"Borotou Koro","","","","8.4771613","-7.1876687",""
"Niamotou","","","","8.8313705","-7.5352117",""
"Memouya","","","","8.8822549","-7.5405332",""
"Borotou","","","","8.7346709","-7.4933263",""
"Baranzan","","","","8.4979062","-7.6267072",""
"Désséné","","","","8.5871206","-7.6401669",""
"Dioulatièdougou","","","","8.9753549","-7.2370359",""
"Métro","","","","8.9329626","-7.1635648",""
"Moyako","","","","8.9011124","-7.1258414",""
"Sédébian","","","","8.8646158","-7.0576498",""
"Djibrosso","","","","8.769622","-7.00083",""
"Morityédougou","","","","8.6542385","-6.9355985",""
"Konogo","","","","8.5333878","-6.9361135",""
"Gbémazo","","","","8.5123369","-6.9393751",""
"Yanfisa","","","","8.374119","-6.9683858",""
"Masara","","","","8.3205222","-6.9342811",""
"Kangara","","","","8.3927319","-6.9927918",""
"Kimbirila-Sud","","","","9.7067769","-7.608875",""
"Minignan","","","","9.9985627","-7.8361487","14000"
"Tiéme","","","","9.5432254","-7.3176698",""
"Kabangoue","","","","10.1411629","-7.5532392",""
"Tienko","","","","10.2251802","-7.4836796",""
"Kehi","","","","10.2543889","-7.5597569",""
"Goulia","","","","10.01765","-7.200453",""
"Sianhala","","","","10.0382732","-6.8543839",""
"Zaniegue","","","","10.0340473","-6.7585969",""
"Mahandiana","","","","10.2626713","-6.6988587",""
"Tengréla","","","","10.4808361","-6.4084029","92454"
"Tinakaha","","","","9.920672","-6.6441803",""
"Nidieou","","","","9.9691986","-6.6175728",""
"Muniene","","","","10.0136608","-6.6697579",""
"Douasso","","","","10.0887087","-6.664608",""
"Tounvré","","","","9.9007183","-6.5020447",""
"Kouto","","","","9.8927311","-6.4127605","55893"
"Gbon","","","","9.8345773","-6.4434824",""
"Kolia","","","","9.7654066","-6.4611893",""
"Madinani","","","","9.6103848","-6.9430731",""
"Séguélon","","","","9.3564345","-7.1196823",""
"Nafana Sianso","","","","9.3057692","-7.1033085",""
"Fengolo","","","","9.925917","-6.9051034",""
"N’Goloblasso","","","","9.6844507","-7.2241386",""
"Ngolodougou","","","","9.1326529","-5.1613124",""
"Kiémou","","","","9.0613669","-5.550429",""
"Longo","","","","8.9780787","-5.3998258",""
"Timbé","","","","8.1719049","-4.9476363",""
"Yékolo","","","","8.1809545","-4.9153215",""
"Boniérédougou","","","","8.3734143","-4.7161457",""
"Bokala","","","","8.406027","-4.6056444",""
"Niakaramandougou","","","","8.6606903","-5.2894139",""
"Kafiné","","","","8.5092621","-5.3111727",""
"Kapélé-Sokoura","","","","8.5383302","-4.6807825",""
"Foumbolo","","","","8.6421277","-4.6477227",""
"Niangourougbono","","","","8.6644018","-4.6624643",""
"Sarala","","","","8.6136574","-4.63929",""
"Sougbone","","","","8.5150342","-4.541958",""
"Sokala-Sobara","","","","8.441178","-4.513119",""
"Mborla-Dioulasso","","","","8.4680053","-4.4806749",""
"Ngorola","","","","8.3990644","-4.5074541",""
"Dabakala","","","","8.363238","-4.428486","15000"
"Darala","","","","8.4439509","-4.3621578",""
"Kotolo","","","","8.3248459","-4.4125253",""
"Diaradougou","","","","8.0546881","-4.5134622",""
"Bocanda","","","","7.063065","-4.4972477","59242"
"Diabo","","Botro","","7.7881544","-5.1709932",""
"Kouadiokro","","","","7.8337042","-5.3055642",""
"Klemeklo","","Botro","","7.7590863","-5.294647",""
"Saoundi","","","","7.7750582","-5.2693552",""
"Sinzékro","","Botro","","7.7732528","-5.2082568",""
"Groh","","Botro","","7.7857733","-5.2262682",""
"Gbéhéké","","Botro","","7.7354186","-5.2615294",""
"Languibonou","","","","7.700895","-5.261974",""
"Messoukro","","Botro","","7.739542","-5.2286201",""
"Boukébo","","Botro","","7.7539674","-5.3237718",""
"Kroukroutie","","Botro","","7.8161341","-5.3173725",""
"Zanikro","","","","7.8225088","-5.2992243",""
"Abé Aougnassou","","Botro","","7.8449915","-5.3553419",""
"Assenzé","","","","7.6913689","-5.5479616",""
"Ahouzé-Kouadiokro","","","","7.7512459","-5.3993887",""
"Kongobo","","","","7.7604308","-5.4789537",""
"Sahué","","","","7.7353368","-5.390192",""
"Aounzé","","","","7.7563365","-5.4173311",""
"Kondrobo","","","","7.8334753","-5.7475697",""
"Kouata","","","","7.891549","-5.8286279",""
"Golipla","","","","7.8185973","-5.8363527",""
"Grahipla","","","","7.810434","-5.8835596",""
"Botopla","","","","7.7708061","-5.8444208",""
"Bakopla","","","","7.7524365","-5.881843",""
"Agbao","","","","7.7455302","-5.7780733",""
"Bambalouma","","","","7.851079","-6.002349",""
"Soukourougban","","","","7.8488678","-5.935058",""
"Kongasso","","","","7.813953","-6.07759",""
"Massala","","","","7.8976327","-6.4370632",""
"Somana","","","","8.1001297","-6.4957041",""
"Nandala","","","","8.0961945","-6.4167407",""
"Sandala","","","","8.1111762","-6.4699548",""
"Gohitré","","","","7.5273447","-6.0469812",""
"Diéoulizra Gon'houla","","","","7.4756062","-6.020717",""
"Boizra","","","","7.4864991","-6.0232919",""
"Pahoufla","","","","7.5322523","-5.9738124",""
"Binzra","","","","7.3259729","-6.0071558",""
"Kouréra","","","","7.3414663","-6.1165041",""
"Vaniébotifla","","","","7.3490857","-6.0206334",""
"Vréhenfla","","","","7.3515112","-6.1087793",""
"Gouatifla","","","","7.3823885","-6.0318152",""
"Goaboifla","","","","7.3921992","-6.0385698",""
"Kouréra","","","","7.3640832","-6.0321592",""
"Ziduho","","","","7.3831766","-6.1685175",""
"Duafla Ouiézra","","","","7.3892945","-6.1612112",""
"Beziaka","","","","7.4560325","-6.1395067",""
"Gouétifla","","","","7.4689734","-6.1880988",""
"Zanzra","","","","7.47833","-6.210746",""
"Douénéfla","","","","7.515602","-6.1978716",""
"Bouata","","","","7.5321097","-6.2311739",""
"Vouéboufla","","","","7.6228063","-5.9474176",""
"Pohizra","","","","7.6407513","-5.9440936",""
"Grohoufla","","","","7.5695306","-5.960738",""
"Bangofla","","","","7.6879666","-5.9319681",""
"Zougounéfla","","","","7.7105917","-5.9280199",""
"Iriéfla","","","","7.687116","-5.8497423",""
"Kaloufla","","","","7.6765685","-5.8495706",""
"Toafla","","","","7.6496882","-5.8506006",""
"Léasso","","","","7.7318026","-5.9201223",""
"Ouinéfla","","","","7.5928598","-5.8784097",""
"Goafla","","","","7.6033299","-5.8766834",""
"Diéigalafla","","","","7.552948","-5.8900771",""
"Kouaisséizra 2","","","","7.5405241","-5.8874057",""
"Zaloufle","","","","7.5300521","-5.8827918",""
"Zuénoula","","","","7.4280208","-6.0500349","53000"
"Grazra","","","","7.5164529","-5.9307665",""
"Zraluo","","","","7.5756945","-5.8866923",""
"Gohitafla","","","","7.4905838","-5.8799547",""
"Douizra","","","","7.4810527","-5.913772",""
"Bongofla","","","","7.5390532","-5.7871916",""
"Gohifla","","","","7.3040089","-6.0011476",""
"Bogopinfla","","","","7.2929413","-5.9970278",""
"Dianfla","","","","7.1345599","-5.8581537",""
"Danangoro","","","","7.1752711","-5.926861",""
"Pakouabo","","","","7.157106","-5.791301",""
"Krigambo","","","","7.1343896","-5.8061403",""
"Zanouofla","","","","7.1345445","-5.8240793",""
"Okabo","","","","7.1900958","-5.7818225",""
"Bonon","","","","6.92692","-6.0442776","116871"
"Bablata","","","","6.9325347","-6.0109386",""
"Dabouzra","","","","6.9384436","-5.9869302",""
"Gobazra","","","","6.9449865","-5.9693635",""
"Blanfla","","","","6.8579091","-5.7637602",""
"Siétinfla","","","","6.8230563","-5.7328624",""
"Kononfla","","","","6.6514189","-5.6054682",""
"Manoufla","","","","6.6203859","-5.6243509",""
"Koumoudji","","","","6.6447798","-5.6372577",""
"Kayéta","","","","6.6400588","-5.6536299",""
"Tiezankro 3","","","","6.6200448","-5.7443422",""
"Goulikao","","","","6.5061265","-5.523929",""
"Louha","","","","6.4387525","-5.6052965",""
"Doukouya","","","","6.42613","-5.558948",""
"Gonaté","","","","6.90115","-6.2436959",""
"Boguédia","","","","6.635387","-6.5195616",""
"Luénoufla","","","","7.0734106","-6.2409493",""
"Bégafla","","","","7.0067971","-6.3288399",""
"Zéréfla","","","","6.9846472","-6.3417145",""
"Bandiai","","","","7.2014996","-6.1844727",""
"Béfla","","","","7.2108664","-6.1400124",""
"Faazra","","","","7.1636899","-6.3030907",""
"Bédiala","","","","7.156877","-6.3060089",""
"Ourouta-Thon","","","","7.1400678","-6.3149675",""
"Bonoufla","","","","7.1271577","-6.4770282",""
"Kétro Bassam","","","","7.1817436","-6.6421219",""
"Zaïbo","","","","6.9854992","-6.6656395",""
"Gamonia","","","","6.9713142","-6.6573783",""
"Zahia","","","","6.915124","-6.577749",""
"Kouléyo","","","","7.1670963","-6.6726776",""
"Kétro","","","","7.1757825","-6.6671845",""
"Néouléfla","","","","7.3956891","-6.607061",""
"Daoua","","","","7.4034655","-6.6177084",""
"Vaafla","","","","7.415036","-6.6474706",""
"Séitifla","","","","7.4403748","-6.7181556","109252"
"Boifia","","","","7.4487987","-6.7371803",""
"Doufla","","","","7.4542455","-6.7430168",""
"Minoré","","","","7.4866832","-6.7880533",""
"Kanzra","","","","7.323164","-6.220995",""
"Dhéra","","","","7.3514262","-6.1731011",""
"Dhézra 1","","","","7.3638543","-6.1693245",""
"Nianoufla","","","","7.3474718","-6.1807049",""
"Srazra","","","","7.300859","-6.2350708",""
"Banoufla","","","","7.1196557","-6.3181549",""
"Gnanagonfla","","","","7.1283429","-6.3130051",""
"Banoufla","","","","7.4563327","-6.3107403",""
"Kouénoufla","","","","7.4555844","-6.3419434",""
"Tiaouo","","","","7.4872424","-6.5055367",""
"Loukouan","","","","9.6323866","-6.080019",""
"Séguétiélé","","","","9.5028323","-6.1060287",""
"Kébi","","","","9.3050225","-6.6185236",""
"Morondo","","","","8.951286","-6.783628",""
"Banandje","","","","8.8191873","-6.7449524",""
"Fadiadougou","","","","8.6994079","-6.6189529",""
"Frototou","","","","8.5960546","-6.6110565",""
"Kani","","","","8.4772526","-6.6032747","55109"
"Komatou","","","","8.5411969","-6.6943445",""
"Sénialo","","","","8.4748443","-6.6501953",""
"Dianra-Village","","","","8.7663784","-6.2447264",""
"Kobadala","","","","8.2519718","-5.91136",""
"Ganaoni","","","","9.284982","-6.322851",""
"Sissédougou","","","","9.1542808","-6.4391085",""
"Sirasso","","","","9.276686","-6.098986",""
"Koni","","","","9.5876191","-5.6861276",""
"Tahouara","","","","9.6558992","-5.649698",""
"Pokaha","","","","9.4124772","-5.517119",""
"Sinématiali","","","","9.5840785","-5.3840301",""
"Dikodougou","","","","9.06757","-5.769772",""
"Sonozo","","","","8.6269015","-6.1302613",""
"Korokaha","","","","9.9009869","-5.6272866",""
"M’Bengué","","","","10.0010816","-5.9007432",""
"Kokpingue","","","","8.9504301","-3.1803303",""
"Sanguinari","","","","8.8317246","-3.1757894",""
"Koutouba","","","","8.69055","-3.193984",""
"Farako","","","","8.6067346","-3.1486282",""
"Banhui","","","","8.3341973","-3.0686646",""
"Gohondo","","","","8.3257048","-3.095787",""
"Toro-Sanguéhi","","","","8.3034645","-3.1165519",""
"Laoudi-Ba","","","","8.288451","-2.960913",""
"Laoudi-Gan","","","","8.2526615","-3.0379372",""
"Niangomani","","","","8.2860033","-3.0699863",""
"Bondo","","","","8.2232705","-3.1950073",""
"Donvagne","","","","8.2030524","-3.2401543",""
"Bilikéhi","","","","8.26897","-3.2152634",""
"Lédi","","","","8.2791625","-3.1227379",""
"Zadé","","","","8.26897","-3.1017952",""
"Pana","","","","8.2288771","-3.3407478",""
"Kiramissé","","","","8.2214721","-3.447098",""
"Sandégué","","","","7.9555223","-3.5813579",""
"Tiedio","","","","7.8831072","-3.2827923",""
"Amanvi","","","","7.968345","-3.136471",""
"Hérébo","","","","7.9520624","-3.0567596",""
"Sogui","","","","8.0203607","-3.1123856",""
"Saboukba","","","","8.5853953","-3.2569746",""
"Pirimou","","","","8.5935427","-3.2923369",""
"Lanbira","","","","8.5919489","-3.3758875",""
"Wakorodigué","","","","8.5963615","-3.3533597",""
"Yaga","","","","8.5446333","-3.4451987",""
"Sindé-Anvéyo","","","","8.5361682","-3.4973006",""
"Longangara","","","","8.5135258","-3.4261469",""
"Depingo","","","","8.5513189","-3.5702299",""
"Bavayo","","","","8.6281669","-3.7264685",""
"Dédi","","","","8.6193414","-3.6727385",""
"Bougoulaye","","","","8.5838677","-3.6315398",""
"Kakpin","","","","8.6550568","-3.7823524",""
"Gansé","","","","8.6217387","-3.9149527",""
"Windéné","","","","8.5721931","-4.0900229",""
"Gonbodougou","","","","8.512326","-4.1497439",""
"Tendéné-Bambarasso","","","","8.4708051","-4.2411093",""
"Panangana","","","","8.5103638","-4.4016127",""
"Lihouéla","","","","8.6008412","-4.3897681",""
"Wandarama","","","","8.6291851","-4.3938021",""
"Kong","","","","9.148681","-4.610648","33391"
"Nafana","","","","9.1922634","-4.7849265",""
"Katiola","","","","8.140406","-5.102172","90641"
"Kanagonon","","","","8.3000376","-5.0563717",""
"Pinsolodougou","","","","8.4385439","-4.5770506",""
"Sindé","","","","8.4417701","-4.6062331",""
"Segbéré","","","","8.4439547","-4.6364189",""
"Kadiéoulé-Lolézo","","","","8.3879393","-4.5547347",""
"Diélisso","","","","8.3522744","-4.54495",""
"Gabiadji","","","","5.0201412","-6.5588894","113369"
"Menegbé","","","","5.1028362","-6.5689276",""
"SAPH Village Centre 1","","","","5.0988155","-6.6421998",""
"Niabably","","","","5.0723772","-6.0753193",""
"Safamanois","","","","5.134467","-6.0355757",""
"Sago","","","","5.267115","-5.9166333","91140"
"Adébem-Kagbéri","","","","5.4792233","-5.8390234",""
"Dakpadou","","","","5.2383979","-6.0697316",""
"Niapidou","","","","5.3394552","-6.0596358",""
"Dabouyo","","","","5.5510739","-6.0387479",""
"Néko","","","","5.7860972","-5.7379006",""
"Kpérédi","","","","5.9149322","-5.4980286",""
"Nébo","","","","5.9365949","-5.4058494",""
"Brabore","","","","5.9123943","-5.3799962",""
"Bolilié","","","","5.982701","-5.4180117",""
"Datta","","","","5.9342349","-5.325998",""
"Goudi","","","","6.1222037","-5.1031064",""
"Hiré","","","","6.1863684","-5.2960098",""
"Didoko","","","","6.0192398","-5.3111097",""
"Kagbé","","","","6.1655437","-5.3492829",""
"Zégo","","","","6.1402842","-5.1920411",""
"Djékanou","","","","6.4695268","-5.1142493",""
"Diégonéfla","","","","6.2844847","-5.5764064",""
"Bléanianda","","","","6.3058431","-5.7054344",""
"Dondi","","","","6.3143741","-5.6652657",""
"Tonla","","","","6.3534446","-5.6429497",""
"Lahouda","","","","6.2094323","-5.7034388",""
"Galébré","","","","6.0036018","-6.2925347",""
"Bakayo","","","","5.9874226","-6.4327928",""
"Konedougou","","","","5.8783334","-6.501908",""
"Oupoyo","","","","5.567214","-6.5905006",""
"Touadji 1","","","","5.5121972","-6.5774544",""
"Yabayo","","","","5.94877","-6.600114",""
"Tapéguia","","","","6.3869733","-6.5114803",""
"Maboguhé","","","","6.3541173","-6.5527351",""
"Zakroguhé","","","","6.3467812","-6.4739426",""
"Zézéa","","","","6.6503748","-6.5638931",""
"Bobréguhé","","","","6.5383394","-6.5666397",""
"Liga","","","","6.6048421","-6.5346431",""
"Brogoua","","","","6.5793297","-6.5469121",""
"Bézibouo","","","","6.6679854","-6.5040886",""
"Léba Tagoura","","","","6.6886279","-6.4863157",""
"Bla","","","","6.7252825","-6.4748143",""
"Dalaboua","","","","6.7353407","-6.4698362",""
"Gbalagoua","","","","6.7725032","-6.4466619",""
"Gbabo","","","","7.1201214","-6.7614888",""
"Grégbeu","","","","6.8017155","-6.7343878",""
"Zoupangbeu","","","","6.7964421","-6.7647397",""
"Kahin-Zarabaon","","","","6.9135932","-7.6318695",""
"Dah zagnan","","","","6.9750625","-7.5462175",""
"Téapleu","","","","7.035934","-8.1260826",""
"Zouan-Hounien","","","","6.9198246","-8.2089154","111099"
"Koulouan","","","","6.9524458","-7.6988174",""
"Pinhou","","","","6.9200689","-7.7580406",""
"Balanfodougou","","","","9.619951","-4.2866316",""
"Booko","","","","8.8739475","-7.7903385",""
"Bouna","","","","9.2687219","-2.9989845","94883"
"Samatiguila","","","","9.818397","-7.561488","6000"
"Abokoidiokro","","","","7.2199717","-4.8093206",""
"Téhini","","","","9.6067135","-3.6576767",""
"Nassian","","","","8.4530536","-3.4707332",""
"Niamoin","","","","9.6124005","-3.4388219",""
"Lankio","","","","9.8711321","-3.4210629",""
"Saye","","","","9.4521335","-3.3444752",""
"Niandégué","","","","9.2608009","-2.8946272",""
"Tafiré","","","","9.0714729","-5.1637595","15000"
"Nanbanakaha","","","","8.9105127","-5.1629776",""
"Kolokaha","","","","8.9776612","-5.2103074",""
"Siago","","","","7.9409782","-2.9530907",""
"Aprompronou","","","","7.0012947","-3.3603616",""
"N’Douci","","","","5.8651031","-4.763067","97194"
"Koun-Fao","","","","7.4879991","-3.2517544",""
"Bounoukro","","","","7.6687105","-3.2138486",""
"Aniassué","","","","6.6554231","-3.6818563",""
"Dakouassikro","","","","7.0830651","-3.234576",""
"Zinzénou","","","","6.8573438","-3.4877308",""
"Yakassé-Féyassé","","","","6.9601357","-3.4120132",""
"Nianda","","","","7.0486289","-3.2803739",""
"Akaso","","","","7.2537501","-3.2055156",""
"Guiendé","","","","7.85477","-3.09087",""
"Tanda","","","","7.803664","-3.1672478",""
"Koboko","","","","7.9698209","-2.9469214",""
"Koto-Ganda","","","","7.5872487","-3.2325993",""
"Tankessé","","","","7.34672","-3.2045512",""
"Kofikro","","","","5.4053179","-3.3787795",""
"Adaou","","","","5.428199","-3.26404",""
"Yaou","","","","5.243287","-3.627492",""
"N'Zikro","","","","5.3946167","-3.4022933",""
"Bonoua","","","","5.2736582","-3.5966802","118388"
"Assékro","","","","7.0229213","-4.6127903",""
"Ayébo","","","","5.4429555","-3.2636168",""
"Assouba","","","","5.4590959","-3.2558322",""
"Ouonengorokro","","","","5.4082426","-3.3475414",""
"N'Zodghi","","","","5.5961216","-3.853529",""
"Oguédoumé","","","","5.3809659","-3.773578",""
"Grand Alépé","","","","5.4754288","-3.7631865",""
"Motobé","","","","5.3120687","-3.6358883",""
"Attiékoi","","","","5.5375371","-3.9663653",""
"Alépé","","","","5.4966091","-3.6638901",""
"Brofodoumé","","","","5.5140414","-3.9305097","20357"
"Ahoué","","","","5.497765","-3.9457821","4000"
"Akouré","","","","5.3773412","-3.7479983",""
"Ahoutoué","","","","5.475643","-3.8051909",""
"N'Guiémé","","","","5.1449537","-3.0503716",""
"Alangouanou","","","","5.1535446","-2.934954",""
"Frambo","","","","5.132116","-2.959734",""
"Tiapoum","","","","5.1385099","-3.0219227",""
"Nouanmou","","","","5.1843315","-2.9004119",""
"Edjambo","","","","5.1978318","-2.963258",""
"Pékaha","","","","8.579251","-5.3005039",""
"Tiébissou","","","","7.1580709","-5.2255722","20000"
"Lolobo","","","","6.9577914","-5.265722","34650"
"Sorobango","","","","8.174791","-2.709205",""
"Kiendi walogo","","","","8.1697359","-2.7758095",""
"Kanguélé","","","","8.1127796","-2.7145919",""
"Poukoubè","","","","8.4046756","-2.6902197",""
"Bin-Houyé","","","","6.7828738","-8.3163906",""
"Logoualé","","","","7.1074292","-7.5511449",""
"Guéhiébli","","","","6.8936785","-7.4320486","5018"
"Para","","","","5.5175786","-7.3291946",""
"Taï","","","","5.8756204","-7.4531292",""
"Kotobi","","","","6.697303","-4.126472",""
"Mahapleu","","","","7.222829","-7.934588",""
"Bloléquin","","","","6.5705513","-8.003273","123133"
"Saleu","","","","7.225364","-8.3279408",""
"Dropleu","","","","7.4086503","-8.3205707",""
"Bampleu","","","","7.4023729","-8.3038441",""
"Gbapleu","","","","7.5710371","-8.3282909",""
"Banneu","","","","7.071856","-8.251017",""
"Déinneu","","","","6.9748902","-8.2803667",""
"Yeleu","","","","6.9695981","-8.0514131",""
"Adiaké","","","","5.2868426","-3.3020071","18000"
"Jacqueville","","","","5.2076511","-4.4195117","55000"
"Rubino","","","","6.071766","-4.3074495",""
"Anoumaba","","","","6.336942","-4.518107",""
"Abatta","","","","5.3267685","-3.9140578",""
"Blédi","","","","7.1454315","-7.3657015",""
"Boho 2","","","","7.1528678","-7.3509738",""
"Zéo","","","","7.1200121","-7.4709216",""
"Diapléan","","","","7.1349701","-7.3944611",""
"Gloplou","","","","7.1126349","-7.3533921",""
"Baibly","","","","7.1762526","-7.2964435",""
"Béoué-Zibiao","","","","7.1136569","-7.3876386",""
"Gonié-Tahouaké","","","","7.1314571","-7.2986751",""
"Sébazon","","","","7.1322767","-7.2578229",""
"Douékpé","","","","7.1367374","-7.3263984",""
"Béoué","","","","6.9598903","-7.4789976",""
"Zagné","","","","6.2102898","-7.4822787",""
"Gahabli","","","","5.9412287","-7.4729231",""
"Soko","","","","8.3367141","-6.9833253",""
"Gboanlé","","","","7.4881377","-7.4697111",""
"Kouibly","","","","7.256817","-7.235397",""
"Gouétimba","","","","7.5006503","-7.459667",""
"Ponan","","","","5.8954937","-7.4792103",""
"Guézon","","","","7.0757263","-7.187029",""
"Bléniméouin","","","","7.1380166","-7.1783237",""
"Facobli","","","","7.3886375","-7.3761531",""
"Dompleu","","","","7.3487133","-7.537266",""
"Blolé","","","","7.3184319","-7.5134867",""
"Zélé","","","","7.3652721","-7.5855225",""
"Zou","","","","6.976354","-7.799829",""
"Gloubli","","","","6.897033","-7.7767632",""
"Diédrou","","","","6.9916202","-7.7794983",""
"Kounahiri","","","","7.7887394","-5.8352918",""
"Niokosso","","","","8.687592","-7.670695",""
"Nanandi","","","","6.7422276","-7.2889153",""
"Bahoubli","","","","6.800187","-7.3991198",""
"Toa-Zéo","","","","6.8006772","-7.3280194",""
"Blody","","","","6.7956128","-7.2950271",""
"Diahouin","","","","6.8451059","-7.408259",""
"Trokpadrou","","","","7.3219535","-7.4707782",""
"Bagohouo","","","","6.890375","-7.193065",""
"Nidrou","","","","6.9019886","-7.1809907",""
"Ginglo Zia","","","","6.8207677","-7.2415595",""
"Gbahiri","","","","5.8102843","-5.6982935",""
"Goutro","","","","7.2375931","-8.2894114",""
"Sokourala","","","","7.6039206","-7.5467625",""
"Gbonné","","","","7.5319224","-7.415926",""
"Gbatodié","","","","7.5809134","-7.5430741",""
"Flansobly","","","","7.5294832","-7.2497056",""
"Zéga","","","","6.499209","-6.4189855",""
"Yapleu","","","","7.0904","-7.711485",""
"Blaguiéhi","","","","6.9570203","-7.665041",""
"Fengolo","","","","6.784804","-7.39314",""
"Gozon","","","","6.8937221","-7.4682653",""
"Diéhiba","","","","6.9024646","-7.4158346","11767"
"Delobli","","","","6.8803868","-7.4158046","2255"
"Séhoun Guiglo","","","","6.8964741","-7.5371726",""
"Tobly-Bangolo","","","","6.7424635","-7.1871135",""
"Tahabli Glodé","","","","6.7420698","-7.2411758",""
"Guézon","","","","6.7387474","-7.1166092",""
"Godjiboué","","","","5.4425001","-5.8612515",""
"Grand Morié","","","","5.9825549","-4.1354766",""
"Kodiossou","","","","5.771669","-3.756527",""
"Kossandji","","","","5.824776","-3.614068",""
"Bacanda","","","","5.632172","-4.876395",""
"Baléko","","","","5.4308473","-6.0293784",""
"Banabo","","","","6.702097","-4.29052",""
"Sangouiné","","","","7.2724591","-7.7789417",""
"Dénan","","","","6.5373205","-8.2778282",""
"Péhé","","","","6.5627784","-8.3037854",""
"Pantrokin","","","","6.566439","-8.3241406",""
"Glakon","","","","6.5832446","-8.2769963",""
"Tahibli","","","","6.5921743","-8.2662363",""
"Nounoubayé","","","","6.4590734","-7.5605378",""
"Domobly","","","","6.5398625","-7.5824336",""
"Zouan","","","","6.5413185","-7.5975057",""
"Béoua","","","","6.5441594","-7.6512545",""
"Goulégui Guézon","","","","6.5446619","-7.565424",""
"Glopaoudi","","","","6.5451938","-7.6330391",""
"Niouldé","","","","6.5474343","-7.67379",""
"Béoué","","","","6.5498951","-7.8733523",""
"Ziglo","","","","6.5633275","-7.7954775",""
"Bédy Goazon","","","","6.565011","-7.777272",""
"Kéïbly","","","","6.5665098","-7.7484084",""
"Ganhia","","","","6.6129634","-8.1377117",""
"Touahoin","","","","6.6164873","-8.1513666",""
"Zomplou","","","","6.6198643","-8.1553798",""
"Méo","","","","6.5196661","-8.2952131",""
"Tinhou","","","","6.4389047","-8.1571515",""
"Koadguézon","","","","6.4812677","-8.2021641",""
"Tuambly","","","","6.4276586","-8.1912694",""
"Dozébli","","","","6.5089355","-8.0685461",""
"Diboké","","","","6.4448759","-8.1153237",""
"Bakoubli","","","","6.468044","-8.410143",""
"Pahoubli","","","","6.3970027","-8.3748705",""
"Tiobly","","","","6.5341903","-8.4994065",""
"Goulaleu","","","","6.702756","-8.3631367",""
"Guiellé","","","","6.5855843","-8.3725656",""
"Douéibli","","","","6.3109775","-8.1466633",""
"Luéhouan","","","","6.3144634","-7.4230112",""
"Oulaï-Taibly","","","","6.3603963","-8.1241089",""
"Zéaglo","","","","6.5520676","-7.8360948",""
"Ditroudra Beoue","","","","6.3661418","-7.528005",""
"Kaadé","","","","6.5708044","-7.7158072",""
"Dahoua","","","","6.6818611","-7.3476619",""
"Goya Blao","","","","6.5643864","-7.4273175",""
"Pinhou","","","","6.6376999","-7.348417",""
"Grand-Zattry","","","","6.1189514","-6.5383221","112049"
"Gomon","","","","5.7242482","-4.4394777",""
"Sikensi","","","","5.671373","-4.575159",""
"Bodo","","","","5.9080375","-4.6845768",""
"Danguira","","","","5.6689259","-3.7666986",""
"Mopodi","","","","5.7308896","-3.6051161",""
"Krinjabo","","","","5.3961","-3.2122237",""
"Benkro","","","","6.4787717","-5.5562905",""
"Blékoua","","","","6.3220745","-5.6414043",""
"Bokéda","","","","6.3609395","-5.7129713",""
"Yohouda","","","","6.4907155","-5.5520041",""
"Zaadi","","","","6.3324484","-5.7383481",""
"Bokassi","","","","6.6151239","-4.2007509",""
"Bongouanou","","","","6.6475288","-4.2046603","32000"
"Abongoua","","","","6.6544358","-4.1030501",""
"Zanfouénou","","","","6.7039135","-4.1087761",""
"Laoguié","","","","5.9780758","-4.1677601",""
"Séguié","","","","6.055271","-4.093658",""
"Yadio","","","","6.0729501","-4.0743011",""
"Aguien","","","","5.3947001","-3.8541771",""
"Maféré","","","","5.4143632","-3.0306236",""
"Akoupé","","","","5.4788682","-4.1554385",""
"Mohamé","","","","5.1720442","-3.5502097",""
"Sassandra","","","","4.9490007","-6.0921667","87945"
"Aboisso","","","","5.4674904","-3.2066162","100903"
"Toumodi","","","","6.5602173","-5.0160877","88580"
"Dimbokro","","","","6.6494254","-4.7040555","70198"
"Ouangolodougou","","","","9.966279","-5.149917","85334"
"Touih","","","","5.2600852","-6.5330353",""
"Samo","","","","5.284951","-3.5172387",""
"Assinie-Mafia","","","","5.1350771","-3.2916617",""
"N'Zianouan","","","","6.0118348","-4.8226498",""
"Lokassou","","","","7.5545056","-5.0536904",""
"Sakiaré","","","","7.0300896","-5.2670917",""
"Bemavogo","","","","9.0218164","-5.4607491",""
"Kakologo","","","","9.2441206","-5.5900462",""
"Kanawolo","","","","8.7848464","-5.3115165",""
"N'Dèbo","","","","6.989426","-5.2753849",""
"Nanwokaka","","","","8.8949697","-5.3750266",""
"Napié","","","","9.2914786","-5.5902741",""
"Waraniéné","","","","9.425556","-5.668618",""
"Bandoli","","","","8.5928764","-2.7051963",""
"Kamala","","","","8.437192","-2.721342",""
"Tagadi","","","","8.6351125","-2.6267038",""
"Zorofla","","","","7.244255","-6.262794",""
"Gorangui","","","","8.2987592","-3.243041",""
"Ngala","","","","8.3605331","-4.3650238",""
"Panayo","","","","8.2533816","-3.2604727",""
"Saforo","","","","8.2977257","-4.3833728",""
"Tindikan","","","","8.3379573","-4.3846677",""
"Parala","","","","8.4237595","-4.6419926",""
"Korékipréa","","","","6.5624204","-6.5534346",""
"Damé","","","","7.0660453","-3.1462227",""
"Kotokosso","","","","7.0724065","-3.1281813",""
"Tortiya","","","","8.7710705","-5.6868652",""
"Kéningouara","","","","10.1620825","-7.7866896",""
"Sokouraba","","","","10.0563785","-7.6204796",""
"Niamina","","","","10.0731114","-7.6824515",""
"Dierila","","","","10.0877544","-7.754277",""
"Tamafrou","","","","8.7536382","-6.195634",""
"Kafégué","","","","8.6680557","-6.1579718",""
"Takyikroum","","","","7.2377879","-2.958893",""
"Kouame Dari","","","","7.6739091","-2.9298698",""
"Kouassisserenou","","","","7.65418","-2.9120311",""
"Ngam","","","","7.6812752","-2.8959376",""
"Mantoukoua","","","","7.7214655","-2.899126",""
"Assuéfry","","","","7.6993299","-2.9809712",""
"Tambi","","","","8.2346521","-2.5719409",""
"Vonkoro","","","","9.172897","-2.7436915",""
"Dobe - Mahidio","","","","6.1948057","-5.9789847",""
"KPAPEKOU","","","","6.2509618","-5.9504731",""
"Ouragahio","","","","6.3083585","-5.9312428",""
"SIEGOUEKOU","","","","6.3438169","-5.8990186",""
"Broudoumé","","","","6.3644179","-5.8714904",""
"Sémé","","","","10.1580743","-6.945423",""
"Krakro","","","","7.5306383","-3.1479446",""
"Koyarabo","","","","7.8007547","-5.7108679",""
"Bourébo","","","","7.9127591","-5.6555761",""
"Kendé Kan","","","","7.9702552","-5.6936355",""
"Sakassou","","","","7.4534806","-5.2923493","17000"
"Rousses","","","","7.8841909","-5.6746112",""
"Kendé Dan","","","","7.8787014","-5.6727389",""
"Dibinou","","","","7.8466126","-5.4392132",""
"Péténou","","","","7.8418004","-5.4134844",""
"Zangokro","","Béoumi","","7.8456239","-5.5707362",""
"Pli-Akakro","","Béoumi","","7.8422819","-5.5620118",""
"Safoukro","","","","7.8775354","-5.5850695",""
"Akomiakro","","Béoumi","","7.8739433","-5.5788682",""
"Goliblénou","","","","7.4994047","-5.3216793",""
"Bodokro","","","","7.8609092","-5.4776421",""
"Angan Kouadiokro","","","","7.6465183","-5.2058607",""
"Dila","","Sakassou","","7.6131389","-5.2049516",""
"Angokoun Kouadiobonou","","","","7.6187562","-5.2417738",""
"Allouboty","","","","7.5845107","-5.2453183",""
"Komokonouan","","","","7.5756746","-5.257038",""
"Solla Tengbe","","","","7.5841897","-5.2099531",""
"Mahounou Kongadja","","","","7.5191341","-5.2575814",""
"Angamankro","","","","7.4983552","-5.1749799",""
"Mangofi","","","","7.4655824","-5.217447",""
"Kanango Kpli","","Sakassou","","7.4600883","-5.21917",""
"Kpanigokro","","","","7.4238939","-5.2181292",""
"Kanango Ahobé","","Sakassou","","7.4525108","-5.1873749",""
"Attiakro","","","","7.4342276","-5.2496498",""
"Ahoué Kansi","","","","7.3679871","-5.2124328",""
"Koumélé","","","","7.3309378","-5.3706875",""
"Zede Kaabo","","","","7.6132552","-5.4372625",""
"Blapleu","","","","7.2476678","-8.0150641",""
"Boundiali","","","","9.5232291","-6.4820197","92792"
"Naouna","","","","10.3279267","-7.6026198",""
"Ayamé","","","","5.6060185","-3.1571915",""
"Tienni","","","","10.064763","-7.9210153",""
"Wahiré","","","","10.1199579","-6.9181213",""
"Songon-Kassemblé","","","","5.3197977","-4.2099531",""
"Masabwédougou","","","","8.4366584","-7.6323045",""
"Kasséré","","","","9.8268243","-6.2171409",""
"Nondara","","","","9.533315","-6.529687",""
"Parako","","","","9.505743","-7.501345",""
"Samankoungolo","","","","9.516667","-7.5",""
"Siempurgo","","","","9.5207745","-6.1937393",""
"Kotoula","","","","10.1175858","-7.3935785",""
"Konéla","","","","10.2958135","-7.6109302",""
"Kadiakro","","","","5.3857253","-3.1787909",""
"Tiogo","","","","10.1662649","-6.3064937",""
"Nambira","","","","10.1299975","-5.9037149",""
"Mahalé","","","","10.1303175","-6.5776328",""
"Bougoula","","","","10.1522193","-6.3319865",""
"Sanahoulé","","","","10.2277838","-6.3354197",""
"Wora","","","","10.0849819","-6.3295821",""
"Tiorotiérie","","","","10.0897183","-6.2083849",""
"Pouniakélé","","","","10.1334838","-6.5163047",""
"Tokala","","","","10.2379645","-6.6344946",""
"Ouassangalasso","","","","10.1741132","-6.6289151",""
"Famitiéguélé","","","","10.1126961","-6.0479575",""
"Zankouana","","","","10.0594495","-5.9626053",""
"Flabougou","","","","10.4969909","-6.466204",""
"Iboké","","","","4.6838757","-7.4040142",""
"Palmci Iboke V1","","","","4.7339344","-7.4000682",""
"Olodio","","","","4.7131472","-7.46919",""
"Tabou","","","","4.4162799","-7.3559159","62719"
"Séguéla","","","","7.9614107","-6.6702351","103980"
"Daoukro","","","","7.0579401","-3.9660686","101136"
"Sapia","","","","8.029093","-2.9770498",""
"Zaranou","","","","6.427546","-3.363223",""
"Bianouan","","","","6.011387","-3.191605",""
"Ebilassokro","","","","6.376572","-3.347126","28331"
"Déma","","","","7.3084466","-6.4812891",""
"Lopou","","","","5.420292","-4.473253",""
"Grand-Béréby","","","","4.6507586","-6.9247355","129340"
"Bettié","","","","6.0754417","-3.4095784",""
"Yakassé-Attobrou","","","","6.1824665","-3.6512284",""
"Biankouma","","","","7.738348","-7.612799","25000"
"Kossou","","","","7.0022851","-5.4802327","32320"
"Bako","","","","9.139589","-7.610936",""
"M’Bahiakro","","","","7.4561347","-4.3391645",""
"Mankono","","","","8.0577294","-6.1897808","74165"
"Tiéningboué","","","","8.1785845","-5.7220863",""
"Toulépleu","","","","6.580899","-8.4150175","22000"
"Yaou","","","","5.7995518","-3.1390829",""
"Arrah","","","","6.6745413","-3.970127",""
"Attiégouakro","","","","6.7760146","-5.1178031","14863"
"Botro","","","","7.8525444","-5.3103708","15000"
"Fresco","","","","5.1041847","-5.5860818","48098"
"Guéyo","","","","5.6899568","-6.0710499",""
"Guitry","","","","5.5191489","-5.2401038",""
"Kaniasso","","","","9.814673","-7.511101",""
"Koro","","","","8.5536789","-7.4623837",""
"Kouakoukrakro","","","","7.4714543","-3.2512595",""
"M’Batto","","","","6.4695017","-4.3585668",""
"Nasian","","","","9.3977012","-4.4798715",""
"Ouaninou","","","","8.23753","-7.867145",""
"Koffi-Amonkro","","","","7.4689475","-3.9617169",""
"Prikro","","","","7.6470835","-3.9973171",""
"Transua","","","","7.5495016","-3.0136612",""
"Zoukougbeu","","","","6.762992","-6.864266",""
"Adiopodoumé","","","","5.3414445","-4.1332269",""
"Niangbo","","","","8.8065961","-5.1609414",""
"Gbéléban","","","","9.583453","-8.1304389",""
"Grabo","","","","4.9238146","-7.4960474",""
"Zéalé","","","","6.9879538","-8.1605632",""
"Sifié","","","","7.9839092","-6.9273181","31264"
"Diawala","","","","10.108501","-5.472799",""
"Kaouara","","","","10.091164","-5.194624",""
"Bouandougou","","","","8.2176026","-5.6681595",""
"Guibéroua","","","","6.2388602","-6.1713177",""
"Bolé","","","","9.6683847","-4.2461961",""
"Kafolo","","","","9.5861092","-4.3120299","1150"
"Lobo","","","","9.6303288","-4.2786784",""
"Ouango-Fitini","","","","9.5962888","-4.0487634",""
"Brobo","","","","7.6408009","-4.8254775",""
"Ouellé","","","","7.2964128","-4.0141563",""
"Azaguié Aoua","","","","5.6393654","-4.0549554",""
"Azaguié Makouguié","","","","5.6251669","-4.1497921",""
"Azaguié","","","","5.6327759","-4.0855505",""
"Marabadjassa","","Béoumi","","8.0955963","-5.439612",""
"Addah","","","","5.1743764","-4.6516414",""
"Attoutou B","","","","5.2211909","-4.5722006",""
"Bobanié","","","","9.7866826","-3.6539445",""
"Brovilla","","","","8.3854066","-3.7328074",""
"Boundouyo","","","","8.3537521","-3.7191926",""
"Bébou","","","","6.361736","-3.4116265",""
"Dassiéko","","","","5.0510803","-5.8065095",""
"Fadiadougou Sakoré","","","","8.7039274","-6.559189",""
"Fadiadougou Sokoura","","","","8.6818258","-6.4823657",""
"Fassélémon","","","","9.2785901","-4.5321229",""
"Foungbesso","","","","7.9483324","-7.6764215",""
"Fouénan","","","","8.1170497","-7.6720572",""
"Gribouo","","","","6.1867543","-6.9075362",""
"Kinta","","","","8.8669253","-2.7895665",""
"Kraffy","","","","5.1554467","-4.7827042",""
"Paatogo","","","","9.0930827","-6.5950441",""
"Sagbagui","","","","8.3401803","-3.743111",""
"Sanlo","","","","8.2263529","-3.7597309",""
"Santa","","","","8.2700773","-8.0607591",""
"Sogbeni","","","","7.8910642","-7.6754447",""
"Sominassé","","","","8.3744057","-3.7576583",""
"Toumbo","","","","7.8290969","-3.8877319",""
"Zaguinasso","","","","10.0507582","-6.365132",""
"Attoutou A","","","","5.2713334","-4.5444445",""
"Braffédon","","","","5.14846","-4.9852871",""
"Moromoro","","","","9.7364779","-4.2414252",""
"Mémni","","","","5.5120292","-3.7404763",""
"Gbéssé","","","","5.839402","-4.29264",""
"Loviguié 1","","","","5.807606","-4.338357",""
"Loviguié 2","","","","5.812758","-4.333506",""
"Offoriguié","","","","5.8816969","-4.2611586",""
"Oneohogo","","","","5.888122","-4.244891",""
"Abouandrikro","","","","6.507492","-5.114899",""
"Lalièkro","","","","6.483892","-5.115527",""
"Yobouékro","","","","6.5212163","-5.1119262",""
"Zouhounou","","","","6.6137461","-3.2916991",""
"Biasso","","","","6.113802","-3.787552",""
"Ehuiasso alongounou","","","","6.3255752","-3.4439023",""
"Assué Mossi","","","","5.1563632","-2.998113",""
"Nzabénou","","","","5.1249884","-2.978846",""
"Landiougou","","","","9.782835","-6.291558",""
"Bogomougou","","","","9.9088631","-6.0968298",""
"Tiasso","","","","9.7110928","-6.2537922",""
"Tiolo","","","","9.9458987","-6.081383",""
"Abéguié","","","","5.7998323","-4.1458284",""
"Affery","","","","6.3203753","-3.9523616",""
"Grand Yapo","","","","5.826339","-4.154524",""
"Yapo Kpa","","","","5.8060127","-4.1434704",""
"Adjouan","","","","5.309949","-3.152315",""
"Akounougbé","","","","5.182782","-3.17836",""
"Tanguélan","","","","7.164994","-3.305516",""
"Akoboissué","","","","6.96348","-3.232404",""
"Amélékia","","","","6.830358","-3.575224",""
"Bongo","","","","5.5020219","-3.511137",""
"Diamarakro","","","","6.236807","-3.32006",""
"Duffrébo","","","","7.089764","-3.446244",""
"Etuéboué","","","","5.2108493","-3.214726",""
"Kouakro","","","","5.443995","-2.906423",""
"Niablé","","","","6.661286","-3.269839",""
"Noé","","","","5.2904138","-2.7944511",""
"Assué Deux","","","","5.133183","-2.995476",""
"Assué","","","","5.131336","-3.003315",""
"Ndara","","","","9.4589221","-6.3993119",""
"Gonzagueville","","","","5.248033","-3.8958501",""
"Songon","","","","5.3249036","-4.2516692","89778"
"Aboisso Comoé","","","","5.735096","-3.403379",""
"Alosso-II","","","","5.5728027","-3.4976528",""
"Danguira II","","","","5.656818","-3.7699044",""
"Abongoua","","","","6.247086","-3.543347",""
"Biéby","","","","6.078725","-3.635475",""
"Annépé","","","","5.906118","-3.769865",""
"Yakassémé","","","","5.8109685","-3.9512341",""
"Agou","","","","5.982888","-3.943933",""
"Assikoa","","","","5.993256","-3.80923",""
"Bécouéfin","","","","6.480855","-3.84625",""
"Bécédi-Brignan","","","","5.909088","-4.012805",""
"Attobrou","","","","6.090212","-4.058897",""
"Guessigué 1","","","","5.738526","-4.235497",""
"Zébra","","","","6.921257","-6.529482",""
"Aboudé","","","","5.898007","-4.5615469",""
"Azaguié","","","","5.662774","-4.146397",""
"Oress-Krobou","","","","5.732399","-4.394703",""
"Céchi","","","","6.2461664","-4.4208711","25967"
"Binao","","","","5.796859","-4.662311",""
"Boussué","","","","5.792666","-4.65974",""
"Gbolouville","","","","5.7914243","-4.6640566",""
"Morokro","","","","6.077604","-4.703057",""
"Pacobo","","","","6.167423","-4.937226",""
"Taabo village","","","","6.1995387","-5.1100968",""
"Bongo Deux","","","","5.530478","-3.514318",""
"Bongo","","","","5.5096702","-3.5488911",""
"Oghlwapo","","","","5.402526","-3.7435433",""
"Johnykro","","","","5.2911535","-4.0834193",""
"Sicor","","","","5.2774096","-4.109881",""
"Ahouanou","","","","5.505652","-4.858796",""
"Ebonou","","","","5.123977","-5.346935",""
"Pandah","","","","5.278826","-4.530295",""
"Toukouzou","","","","5.153406","-4.79233",""
"Toupah","","","","5.3190129","-4.5651395",""
"Yocoboué","","","","5.269325","-5.106577",""
"Blaneu","","","","7.2897212","-8.0384733",""
"Agboro","","","","5.7366931","-5.4848185",""
"Chiépo","","","","5.695194","-5.062514",""
"Dairo","","","","5.6612194","-5.4756163",""
"Didizo","","","","5.6544515","-5.468242",""
"Hermankono DIES","","","","5.5795602","-5.3695502",""
"Lauzoua","","","","5.203268","-5.310133",""
"Aparagra","","","","6.141062","-5.145549",""
"Ogoudou","","","","5.8970201","-5.158872",""
"Pahia","","","","5.902417","-5.1623837",""
"Godiéko","","","","6.1532128","-5.6920513",""
"Gagoré","","","","6.0501372","-5.6292961",""
"Goudouko","","","","5.736654","-5.615811",""
"Zikisso","","","","6.06396","-5.702452",""
"Doukouyo","","","","5.842329","-5.971341",""
"Sérihio","","","","5.8993975","-6.1179769",""
"Badiépa","","","","6.266017","-5.82291",""
"Bayota","","","","6.464774","-5.954267",""
"Bayékou-Bassi","","","","6.210533","-5.911108",""
"Dahiépa-Kéhi","","","","6.212558","-5.846277",""
"Dignago","","","","6.291639","-6.2794254",""
"Dougroupalégnoa ( Doroubé)","","","","5.9909961","-5.9349793",""
"Gnagbodougnoa","","","","5.966114","-5.8413487",""
"Grand Gbassi","","","","6.2132604","-5.8962845",""
"Djedje Digbeupa","","","","6.20963","-5.8674687",""
"Krobokpa","","","","6.2869003","-5.8217627",""
"ZEGREPA","","","","6.2452712","-5.8393606",""
"MAGBEHI","","","","6.3092513","-5.8268486",""
"Tiépa","","","","6.236943","-5.921069",""
"KEHI GBAHI","","","","6.2294438","-5.8415444",""
"Yopohué","","","","6.395964","-5.829518",""
"Guépahouo","","","","6.472681","-5.70615",""
"Dahiri","","","","5.2831718","-5.5257909","34821"
"Gbagbam","","","","5.465372","-5.5874761",""
"Grihiri","","","","5.430326","-6.348664",""
"Lobakuya","","","","5.449532","-6.2033258",""
"Médon","","","","5.2068668","-6.216912",""
"Garoubré","","","","5.2820835","-6.2374254",""
"Zabré","","","","5.3093798","-6.2695743",""
"Lobakuya","","","","5.085563","-6.345215",""
"Belleville","","","","6.168669","-6.875199",""
"Okrouyo","","","","5.7655724","-6.4080341","120053"
"Dogbo","","","","4.9419422","-7.0435551","61632"
"Djamandioké","","","","4.4295958","-7.4703822",""
"Djoutou","","","","4.4166952","-7.5089379",""
"Djouroutou","","","","5.36758","-7.284124",""
"Afounvanso","","","","7.652214","-3.874449",""
"Agnianou","","","","7.687202","-3.757466",""
"Akanangbo","","","","7.5484672","-3.8872984",""
"Bognankro","","","","7.8606241","-4.0131502",""
"Famienkro","","","","7.8632226","-3.9856387",""
"Faramoukro","","","","7.4975309","-3.8547845",""
"Koffi Akakro","","","","7.423655","-3.823345",""
"Nafana","","","","7.6047096","-3.7320934",""
"Zanzansso","","","","7.373562","-3.877821",""
"Kondossou","","","","7.716352","-4.506162",""
"Akpassanou","","","","7.353851","-4.450738",""
"Ananda Kouassikro","","","","7.2839672","-4.2554491",""
"Atoukoukouakoukro","","","","6.808578","-4.435153",""
"Bengassou","","","","6.794191","-4.485144",""
"Bonguéra","","","","7.666626","-4.243349",""
"Ettrokro","","","","7.258925","-3.7597319",""
"Kouadioblékro","","","","6.934161","-4.317165",""
"Kouassi-Kouassikro","","","","7.341414","-4.67709","25000"
"N’Gattakro","","","","7.0633791","-3.7558267",""
"N’Zécrézessou","","","","7.071576","-4.280357",""
"Samanza","","","","7.498933","-3.573345",""
"Abigui","","","","6.69462","-4.833791",""
"Adahou","","","","6.8090256","-4.8334195",""
"Akakro","","","","6.319447","-4.925304",""
"Andé","","","","6.781764","-4.085171",""
"Angoda","","","","6.677086","-5.0226804",""
"Assahara","","","","6.666432","-4.497748",""
"Assié-Koumassi","","","","6.7696278","-4.2894704",""
"Bouafoukro","","","","6.671634","-4.474526",""
"Diangokro","","","","6.759912","-4.584759",""
"Ediakro","","","","6.651632","-4.808024",""
"Faafoué Etienkro","","","","6.775834","-4.826161",""
"Trianikro","","","","6.851385","-4.806779",""
"Kokumbo","","","","6.5417134","-5.2559473",""
"Komién Kouassikro","","","","6.7220342","-4.8478776",""
"Kpouèbo","","","","6.334405","-4.856185",""
"Krégbé","","","","6.972491","-3.984164",""
"Moronou","","","","6.320429","-4.9711966",""
"N’Guessankro","","","","6.634682","-4.303493",""
"Tiémélékro","","","","6.4970737","-4.6155256",""
"Boli","","","","7.226483","-4.806659",""
"Didiévi","","","","7.12866","-4.898041",""
"Lomokankro","","","","7.08481","-5.031292",""
"Molonou","","","","7.158316","-5.366936",""
"Molonou-Blé","","","","7.4062989","-4.9847195",""
"Tié-N’Diékro","","","","7.4274242","-4.7651872",""
"Yakpabo-Sakassou","","","","6.927523","-4.886899",""
"Bazré","","","","6.7232563","-5.486779",""
"Bégbessou","","","","7.066973","-5.597375",""
"Kouétinfla","","","","6.619076","-6.0454566",""
"Maminigui","","","","7.401832","-5.840772",""
"N’Douffoukankro","","","","6.8619469","-5.8217423",""
"Tibéita","","","","7.182714","-5.823227",""
"Zaguiéta","","","","6.788149","-6.062872",""
"Bazra-Nattis","","","","7.608258","-6.521491",""
"Dananon","","","","7.6086572","-6.3639444",""
"Dania","","","","7.1523989","-6.8416126","106612"
"Domangbeu","","","","6.868962","-7.0238361",""
"Gboguhé","","","","6.757276","-6.583705",""
"Guéssabo","","","","6.736676","-6.95487",""
"Iboguhé","","","","6.548104","-6.84419",""
"Nahio","","","","6.384233","-6.22736",""
"Kéréguhé","","","","6.4243017","-6.6880769",""
"Niatiahio","","","","6.375918","-6.276018",""
"Saïoua","","","","6.4873195","-6.2761554","100085"
"Doké","","","","6.592811","-8.112052",""
"Nizahon","","","","6.3784635","-7.3952194",""
"Nézobly","","","","6.5996432","-8.4726373",""
"Diéouzon","","","","7.155748","-7.322195",""
"Gbapleu","","","","6.4793237","-7.1583802",""
"Gohouo","","","","7.054022","-7.44035",""
"Guinglo-Tahouaké","","","","7.035109","-7.164899",""
"Kranzadougou","","","","6.484963","-7.201009",""
"Guézon","","","","7.4222492","-7.2886301",""
"Koua","","","","7.505711","-7.270249",""
"Nidrou","","","","7.3002967","-7.4481914",""
"Ouyably-Gnondrou","","","","7.3337334","-7.2056669",""
"Sémien","","","","7.614189","-7.129547",""
"Tiény-Séably","","","","7.3775799","-7.4544025",""
"Trotrodrou","","","","7.2883519","-7.387027",""
"Blonleu","","","","7.1319869","-8.0660887",""
"Seileu","","","","7.09628","-8.173514",""
"Zonneu","","","","7.170958","-8.066928",""
"Daleu","","","","7.510849","-8.106025",""
"Gbon-Houyé","","","","7.423963","-8.339967",""
"Kouan-Houlé","","","","7.392788","-8.260929",""
"Boguiné","","","","7.2575471","-7.5965635",""
"Gbangbégouiné-Yati","","","","7.330871","-7.674492",""
"Podiagouiné","","","","7.149836","-7.745929",""
"Ziogouiné","","","","7.192464","-7.640556",""
"Fagnampleu","","","","7.447697","-7.401145",""
"Sandougou-Soba","","","","7.6010021","-7.4816935",""
"Zagoué","","","","7.480181","-7.497312",""
"Blapleu","","","","7.6392661","-7.7378577",""
"Gbangbégouiné","","","","7.67478","-7.473381",""
"Gouiné","","","","7.7167078","-7.4169524",""
"Kpata","","","","7.719125","-7.545808",""
"Santa","","","","7.663889","-7.847778",""
"Yorodougou","","","","7.783563","-7.880244",""
"Gbêlo","","","","8.147811","-7.7591532",""
"Gouékan","","","","8.0360801","-7.843792",""
"Koonan","","","","8.3621601","-7.970187",""
"Saboudougou","","","","8.373906","-8.122713",""
"Banandougou","","","","8.259675","-7.986445",""
"Koungo","","","","8.007216","-7.741373",""
"Dioman","","","","8.132763","-7.545288",""
"Guintéguéla","","","","8.290441","-7.309272",""
"Sokourala","","","","8.328467","-7.509362",""
"Mahadougou","","","","9.035685","-7.830246",""
"Bobi","","","","8.161443","-6.550059",""
"Dianra","","","","8.9525209","-6.2547072",""
"Diarabana","","","","8.186488","-6.608513",""
"Dualla","","","","8.123983","-6.540991",""
"Kamalo","","","","7.8557006","-7.0191925",""
"Marhandala","","","","8.447221","-5.919475",""
"Sarhala","","","","8.417893","-6.171472",""
"Worofla","","","","8.273354","-6.905555",""
"Ayaou sokpa","","Béoumi","","7.4202987","-5.6137457",""
"Bounda","","","","7.621989","-4.737028",""
"Dibri-Assirikro","","","","7.5906244","-5.168295",""
"Krofoinsou","","Botro","","7.9428708","-5.2410568",""
"Lolobo","","","","7.767116","-5.39617",""
"Mamini","","","","7.732218","-4.802079",""
"Djébonoua","","","","7.5188587","-5.070675",""
"Toumodi sakassou","","Béoumi","","7.3971143","-5.5633378",""
"Arikokaha","","","","8.786192","-5.195666",""
"Badikaha","","","","9.191656","-5.164986",""
"Fronan","","","","8.2114881","-5.130288",""
"Niédiékaha","","","","8.9360659","-5.1759953",""
"Basawa","","","","8.051544","-4.103288",""
"Satama-Sokoro","","","","7.898064","-4.530125",""
"Satama-Sokoura","","","","7.897653","-4.363939",""
"Yaossédougou","","","","8.239708","-4.2454911",""
"Boahia","","","","7.5717037","-3.5148859",""
"Daboukro","","","","7.551385","-3.50663",""
"Douminissi","","","","7.589747","-3.497421",""
"Karakrou","","","","7.568788","-3.514378",""
"Kokomian","","","","7.2594844","-3.0559956",""
"Kouakoukarakrou","","","","7.580848","-3.514878",""
"Kouassi-Datékro","","","","7.8175","-3.525556",""
"Tienkoikro","","","","7.218923","-3.064827",""
"Yaobilikouro","","","","7.594189","-3.51394",""
"Diamba","","","","7.809745","-3.312539",""
"Kouassia-Niaguini","","","","7.388893","-3.037492",""
"Appimandoum","","","","7.8956966","-2.8727262",""
"Bandakagni-Tomora","","","","8.007989","-3.3050084",""
"Boroko","","","","7.90945","-2.824738",""
"Dimandougou","","","","8.0120408","-3.7728777",""
"Gouméré","","","","7.896296","-2.980126",""
"Pinda","","","","7.9005267","-2.8367378",""
"Pinda-Boroko","","","","7.905982","-2.8313424",""
"Sapli","","","","8.14477","-2.986273",""
"Sépingo","","","","8.155559","-3.000285",""
"Tabagne","","","","7.9907748","-3.0678311",""
"Taoudi","","","","8.137008","-3.434735",""
"Yorobodi","","","","8.119134","-3.681914",""
"Yézimala","","","","8.206641","-2.948122",""
"Bodé","","","","8.5825803","-3.1707315",""
"Bogofa","","","","8.6059831","-3.1589913",""
"Danoa","","","","9.6871308","-3.0798088",""
"Gogo","","","","9.7724767","-3.5213719",""
"Goumbéré","","","","8.6079326","-3.1667917",""
"Kalamon","","","","9.822854","-3.165327",""
"Ondéfidouo","","","","9.0438471","-3.0829686",""
"Tougbo","","","","9.7637987","-4.1409265",""
"Youndouo","","","","8.8254165","-2.9574519",""
"Bilimono","","","","8.921978","-4.147861",""
"Koumbala","","","","9.5132647","-5.1595317",""
"Sikolo","","","","9.442482","-4.715126",""
"Togoniéré","","","","9.487895","-5.0589385",""
"Boron","","","","8.7037767","-5.9641153",""
"Dassoungboho","","","","9.388607","-5.785841",""
"Guiembé","","","","9.232983","-5.71277",""
"Kagbolodougou","","","","9.396857","-5.403768",""
"Kanoroba","","","","9.110875","-6.122378",""
"Komborodougou","","","","9.326337","-5.429216",""
"Konbolokoura","","","","9.330607","-5.886373",""
"Nafoun","","","","9.334722","-6.211667",""
"Tioroniaradougou","","","","9.354461","-5.637656",""
"Oliokaha","","","","9.4177331","-5.4948714",""
"Niofoin","","","","9.611343","-6.076559",""
"Sediogo","","","","9.5121833","-5.4789755",""
"Katiali","","","","9.822682","-5.933805",""
"Baya","","","","9.90531","-6.247811",""
"Bougousso","","","","9.256956","-7.824157",""
"Féréfougoula","","","","9.28537","-7.729734",""
"Gbongaha","","","","9.116867","-6.89666",""
"Korondougou","","","","9.320734","-7.628469",""
"Niamatogola","","","","9.28347","-7.736829",""
"Samango","","","","9.664469","-7.730705",""
"Seydougou","","","","9.511824","-7.975548",""
"Beniakré","","","","5.452266","-3.426604",""
"Kohourou","","","","5.479641","-3.328561",""
"Abolikro","","Botro","","7.683452","-5.3349694",""
"Afotobo","","","","7.6698648","-5.4630267",""
"Souafoué-Dan","","","","7.6677764","-5.5408909",""
"Assengou","","","","7.6693289","-5.5271366",""
"Sessénoua","","","","7.6893216","-5.1454275",""
"Bende Kouassikro","","","","7.6532711","-5.1291225",""
"Logbakro","","","","6.7354866","-5.2028975",""
"Gourominankro","","","","6.7128072","-5.1710952",""
"Minabo","","","","7.1154988","-5.1262862",""
"Gangoro","","","","7.0320893","-5.0744524",""
"Koubi","","","","7.128547","-5.1815594",""
"Assé Ngatakro","","","","7.0574086","-5.0953838",""
"Doubouéli","","","","7.0606174","-5.0762365",""
"Aoukro","","","","7.0532159","-5.0755726",""
"Dougbafla","","","","6.3430433","-5.3946103",""
"Passanou","","","","7.0277055","-5.0808942",""
"Assanou","","","","6.9770492","-5.1717844",""
"Pranoua","","","","6.8688966","-4.9619356",""
"Yébouébo","","","","6.9001902","-5.0044027",""
"Akpangokro","","","","6.9301669","-5.0198044",""
"Abiguy","","","","6.9425624","-5.0158241",""
"Gogokro","","","","6.9646028","-5.0355301",""
"Cafenou","","","","7.1085195","-5.0987742",""
"N'Zissiessou","","","","7.1013735","-5.0763439",""
"Bondoukou","","","","7.0950623","-5.055565",""
"Ngata Nguessamblékro","","","","7.0532523","-5.0218126",""
"Amoriakro","","","","7.099408","-3.528214",""
"Amoikonkro","","","","7.115573","-3.628336",""
"Aoussakomoékrou","","","","7.153755","-3.655028",""
"Assempaneye","","","","7.214972","-3.302675",""
"Attobro","","","","7.040047","-3.381414",""
"Ayénou","","","","7.159977","-3.224605",""
"Bangoua","","","","7.33542","-3.47303",""
"Brindoukro","","","","6.857504","-3.284382",""
"N'Dakro","","","","7.362503","-3.373405",""
"Dihinébo","","","","7.354759","-3.364199",""
"N'djorekro","","","","7.0210338","-3.2478797",""
"Kokonou","","","","7.132166","-3.61713",""
"Komoé-Dénou","","","","7.247793","-3.573692",""
"Komoé-Noua","","","","7.1941726","-3.6083433",""
"Kongodia","","","","7.0559605","-3.2277083",""
"Konogo-N'dri","","","","7.1125029","-3.4667774",""
"Kouadiokro","","","","7.271656","-3.5440625",""
"Kouaméziankro","","","","7.028992","-3.382274",""
"Manzanoua","","","","6.843464","-3.286248",""
"Nguessankro","","","","7.121475","-3.343293",""
"Yobouakro","","","","7.23912","-3.313306",""
"Angouakoukro","","","","6.7211918","-4.8564789",""
"Boni Andokro","","","","6.7343224","-4.9064368",""
"Pakoukro","","","","6.7728004","-4.8906448",""
"Agnéré Koffikro","","","","6.8048962","-4.9191133",""
"Bassa Yébouéssou","","","","6.7607755","-4.7594587",""
"Kouadio-Etienkro","","","","6.7959404","-4.7489408",""
"Noufou","","","","6.8340041","-4.7052056",""
"Adioumanikro","","","","6.8586042","-4.6622431",""
"Essé-Kouadiokro","","","","6.8494845","-4.6273317",""
"Bendékro","","","","6.8472126","-4.5907265",""
"Kouakou Lékikro","","","","6.8264869","-4.5989911",""
"Tano Akakro","","","","6.7922755","-4.5884723",""
"Booré Etienkro","","","","6.8193276","-4.5573055",""
"Aoussoukro","","","","6.8278946","-4.5286502",""
"Bombokro","","","","6.9924582","-4.5148781",""
"Tagnakro","","","","6.9467853","-4.5140645",""
"Dida Moessou","","","","6.9080828","-4.5199209",""
"Alokokro","","","","6.8754001","-4.5075691",""
"Mbéboussou","","","","6.8545294","-4.5022037",""
"Fondi 2","","","","7.0362416","-4.5501171",""
"Tiémoukro","","","","7.0360193","-4.7328051",""
"Ngouan té","","","","7.0347457","-4.7085386",""
"Proponou","","","","7.1350984","-5.2671105",""
"Konankro","","","","7.1210229","-5.3299906",""
"Kondorobo","","","","7.1147939","-5.3375578",""
"Yadibikro","","","","7.1077894","-5.3510077",""
"Assuikro","","","","7.0877078","-5.3833126",""
"Niamienkro","","","","7.2162784","-5.3389342",""
"Kongossou","","Béoumi","","7.6451173","-5.561621",""
"Diakohou","","","","7.6356244","-5.5447639",""
"Akadiafoué","","","","7.6132205","-5.5294972",""
"Fari M'Babo","","Béoumi","","7.5990537","-5.5207347",""
"Yoboue n'zue","","Béoumi","","7.5917684","-5.4796197",""
"Abouakro","","Béoumi","","7.5668027","-5.5314868",""
"Mandanou","","Béoumi","","7.5401941","-5.5399424",""
"Bonikro","","","","7.5426771","-5.5170065",""
"Dékréta","","Béoumi","","7.5253128","-5.5687719",""
"Kouadio sakassou","","Béoumi","","7.4828188","-5.5753839",""
"Dianhou","","","","7.5379104","-5.4529348",""
"Gilikro","","","","7.5235723","-5.4419635",""
"Konamoukro","","","","7.5039698","-5.4099196",""
"Adioblessou","","","","7.4852847","-5.3380178",""
"Kangré","","Sakassou","","7.5011147","-5.3644633",""
"Golipokro","","Sakassou","","7.4723954","-5.373713",""
"Konzo","","","","7.4623094","-5.0636979",""
"Kondoukro","","","","7.4631998","-5.08607",""
"Panango","","","","7.4413517","-5.0660153",""
"Sémoukro","","","","7.4438607","-5.0767464",""
"Kouakobo","","","","7.447627","-5.0326471",""
"Diamankro","","","","7.4157203","-5.0266884",""
"Bossi","","","","7.4292761","-5.0391038",""
"Niangban","","","","7.399599","-5.0935448",""
"Mbam","","","","7.4016259","-5.0611659",""
"Yaokro","","","","7.4054355","-5.0333495",""
"Raviart","","","","7.4038657","-4.8882718",""
"Koklo Kouassikro","","","","7.3796115","-4.93136",""
"Boungué","","","","7.3753342","-4.9372823",""
"Kotoblinouan","","","","7.3702518","-4.941464",""
"Eboissué","","","","6.826608","-3.509311",""
"Elinsso","","","","6.994264","-3.721437",""
"Padiégnan","","","","6.97847","-3.423042",""
"Tanokro","","","","6.976389","-3.381944",""
"Zamaka","","","","6.911002","-3.415321",""
"Zinzénou","","","","6.881389","-3.458056",""
"Diafouéfla","","","","7.5065529","-5.8428252",""
"Ouréitafla","","","","7.5126445","-5.8297781",""
"Boyaokro","","","","7.6049867","-5.713075",""
"Asséyaokro","","","","7.6703453","-5.7404309",""
"Trafessou","","","","7.7568509","-5.8735054",""
"Blèda","","","","7.656935","-5.9395702",""
"Petit Zirifla","","","","7.6110888","-5.9546491",""
"Badiéfla","","","","7.594526","-5.9603975",""
"Trabiménéfla","","","","7.6561477","-5.8528921",""
"Manfla","","","","7.4116787","-5.9142772",""
"Guériafla","","","","7.4232402","-5.8294938",""
"Zédékan","","","","7.6290992","-5.5691704",""
"Niambrun","","","","7.6206133","-5.5690631",""
"Abayansi","","","","7.5919836","-5.5713263",""
"N'zoupri","","Béoumi","","7.5840753","-5.5754469",""
"Diéviessou","","","","7.5865279","-5.6088097",""
"Séizra","","","","7.4529223","-6.0168176",""
"Kouréfla","","","","7.5227589","-5.9788441",""
"Kouinfla","","","","7.5410415","-5.9669833",""
"Complexe Sucrier","","","","7.6012101","-6.1440609",""
"Tipadipa","","","","6.0855188","-5.8637492",""
"Godiabré","","","","6.0956796","-5.8863075",""
"Bobia","","","","6.0742032","-5.835562",""
"Kabia","","","","6.0679578","-5.8269979",""
"Bognoa","","","","6.065567","-5.8209102",""
"Godélilié","","","","6.0420844","-5.8404011",""
"Dikouéhipalegnoa","","","","6.0526282","-5.872506",""
"Gbadjie","","","","6.0392801","-5.897954",""
"Dobouo","","","","6.0466958","-5.9094148",""
"Mahiboua","","","","6.0485736","-5.921989",""
"Kobréngnoa","","","","6.0414434","-5.9463427",""
"Djodjagnoa","","","","6.0314058","-5.9728781",""
"Toutoubré","","","","6.0822778","-6.0647348",""
"Ahizabre","","","","6.0494779","-6.1005947",""
"Yacolo","","","","5.9669145","-6.493282",""
"Gnongboyo","","","","5.8838165","-6.4009819",""
"Vridi Ako","","","","5.257658","-4.0324527",""
"Bricolo","","","","5.7851593","-6.4522107",""
"Neneferoua","","","","5.7826284","-6.4408764",""
"Dagbéroua","","","","5.7849176","-6.494889",""
"Koudouyo","","","","5.7650653","-6.5119521",""
"Gbalebouo","","","","5.737645","-6.3453015",""
"Djategnoa","","","","6.0481071","-5.9291245",""
"Obodroupa","","","","6.0435317","-5.7962609",""
"Dodougnoa","","","","6.0193985","-5.801817",""
"Djoulabougou","","","","6.0506605","-5.8038929",""
"Ouagalilié","","","","6.0314236","-5.7781475",""
"Gogné","","","","6.0194784","-5.7621301",""
"Grogouya","","","","5.9865454","-5.7359431",""
"Diagoboua","","","","5.9740711","-5.7275469",""
"Gogoko","","","","6.0011211","-5.6937845",""
"Zato Boua","","","","6.0266749","-5.6525259",""
"Brihiri","","","","6.0992911","-5.5837971",""
"Godou","","","","6.1140168","-5.6228215",""
"krikpoko","","","","6.1227193","-5.634361",""
"Bessaboua","","","","6.1230102","-5.6438692",""
"Dousséba","","","","6.1145567","-5.677005",""
"Gogohouri","","","","6.1069667","-5.6885567",""
"Makobéry","","","","6.0958226","-5.6886466",""
"Niagbaméko","","","","6.0858777","-5.6953945",""
"Dédi","","","","6.1912479","-5.7053037",""
"Gouéda","","","","6.216692","-5.6906505",""
"Bronda","","","","6.2272567","-5.6682956",""
"Tiégba","","","","6.2305675","-5.6537633",""
"Gboménéda","","","","6.3200549","-5.6579638",""
"Zaadt","","","","6.2988289","-5.7737852",""
"Bélakro","","","","7.6679099","-5.5038884",""
"Parabenefla","","","","6.5588394","-5.7918609",""
"Zemenafla","","","","6.5530276","-5.7832512",""
"Tiezankro I","","","","6.6552074","-5.7809455",""
"Djénédoufla","","","","6.6522545","-5.8056184",""
"Sanégourifla","","","","6.6559055","-5.7998749",""
"Kouakou-koffikro","","","","6.6412648","-5.7115198",""
"Karamogosso","","","","6.6435862","-5.6892999",""
"Djenebroufla","","","","6.6500466","-5.6243573",""
"Odiennekaman","","","","6.6930102","-5.5509603",""
"Djamalakro 1 & 2","","","","6.6766665","-5.5702229",""
"Bounafla","","","","6.7264881","-5.506923",""
"Gooua","","","","6.6998768","-5.4889248",""
"Akpessékro","","","","6.7355839","-5.3036797",""
"Duonfla","","","","6.843074","-5.499816",""
"Baonfla","","","","6.8308785","-5.5012147",""
"Koudougou","","","","6.9345106","-5.6660598",""
"Kouassi Perita","","","","6.9359747","-5.6434958",""
"Kaviessou","","","","6.9265189","-5.6369924",""
"Alekran","","","","6.9211927","-5.6067806",""
"Gouagui","","","","6.9195872","-5.5963129",""
"Zougoussou","","","","6.9210987","-5.5773614",""
"Angovia","","","","7.0340977","-5.538043",""
"Koupéla","","","","7.0442709","-5.7655011",""
"Aka-N'Guessankro","","","","7.1416597","-5.7399288",""
"GNALIEPA","","","","6.283468","-5.9443498",""
"Karahi","","","","6.3343324","-5.9363362",""
"Bodossipa","","","","6.3372119","-5.9508717",""
"Krobopa","","","","6.3348642","-5.9615771",""
"Mama","","","","6.3151829","-5.9877779",""
"Gbigbikou","","","","6.3912239","-5.958643",""
"Téhiri","","","","6.3980947","-5.9833896",""
"Balayo","","","","6.4417398","-6.0121966",""
"Yazerme","","","","6.457838","-6.0133945",""
"Tiégbahio","","","","6.4700732","-5.9772274",""
"Nékéidé","","","","6.4659939","-5.999581",""
"Blouzom","","","","6.4465228","-5.9631517",""
"Solokou","","","","6.4391797","-5.961736",""
"Zahibohio","","","","6.4285119","-5.96314",""
"Zigbohouri","","","","6.4337633","-5.9198329",""
"Brihi","","","","6.4509105","-5.9192157",""
"Didia","","","","6.4348366","-5.8523115",""
"Ziplignan","","","","6.4488806","-5.8419138",""
"Baompa","","","","6.4727841","-5.8083883",""
"Sanépa","","","","6.4590793","-5.802264",""
"Nagadougou","","","","6.4273246","-5.782298",""
"Douagbo","","","","6.4657845","-5.7237954",""
"Gopa (Bôkô)","","","","6.399973","-5.797642",""
"Adikokoi","","","","6.633312","-3.711935",""
"Adoukoffikro","","","","6.6980761","-3.4617384",""
"Adonikro","","","","6.7231136","-3.5639264",""
"Akakomoékro","","","","6.171907","-3.355764",""
"Akoikoro","","","","6.775956","-3.511761",""
"Akréby","","","","6.143524","-3.385394",""
"Amangouakro","","","","6.866642","-3.769728",""
"Anougbakro","","","","6.96271","-3.744531",""
"Anuanua","","","","6.7253925","-3.5540457",""
"Madame Kady","","","","6.7016329","-3.637242",""
"Appouessou","","","","6.548456","-3.427546",""
"Apprompron affewa","","","","6.292193","-3.315259",""
"Assémanou","","","","6.789059","-3.756871",""
"Blékoum","","","","6.390677","-3.536852",""
"Bokakokoré","","","","6.458087","-3.389343",""
"Borobo","","","","6.196866","-3.292087",""
"Bossematié","","","","6.6084343","-3.443757",""
"Brou-Attakro","","","","6.677397","-3.803741",""
"Békouinkro","","","","6.5075716","-3.40644",""
"Dalou","","","","6.751458","-3.787435",""
"Diangobo","","","","6.565639","-3.336752",""
"Kouassi-Béniékro","","","","6.805156","-3.527481",""
"M'Basso-Agni","","","","6.301054","-3.471097",""
"Satikran","","","","6.826987","-3.743181",""
"Soukoussoukou","","","","6.4808801","-3.3442833",""
"Takima","","","","6.5267606","-3.3688905",""
"Kodjinan","","","","6.729162","-3.58775",""
"Bandakro","","","","6.1998868","-5.7537624",""
"Attiékro","","","","6.133214","-3.213452",""
"Appouasso","","","","5.963046","-3.176052",""
"Ebikro-Ndakro","","","","5.724997","-3.110986",""
"Kétésso","","","","5.877962","-3.174071",""
"Sanhoukro","","","","5.784986","-3.129683",""
"Songan","","","","6.109293","-3.208425",""
"Soubré","","","","5.932812","-3.180678",""
"Bodiba","","","","6.4457676","-5.7128919",""
"Donsohouo","","","","6.4491488","-5.6959217",""
"Affiénou","","","","5.411185","-2.924785",""
"Ahigbé Koffikro","","","","5.40755","-3.380233",""
"Akressi","","","","5.666422","-3.078209",""
"Allekro","","","","5.3610453","-3.2054583",""
"Alunkro","","","","5.4804669","-3.2295186",""
"Amankokro","","","","5.431639","-3.314739",""
"Baffia","","","","5.538909","-2.990233",""
"Bakro","","","","5.506815","-3.245502",""
"Brahimakro","","","","5.4030916","-3.448574",""
"Dadressio","","","","5.502883","-2.83359",""
"Diby","","","","5.657744","-2.978453",""
"Doudoukro","","","","5.33783","-3.327773",""
"Eboué","","","","5.344071","-3.125502",""
"Kotoka","","","","5.545259","-2.8693525",""
"Kouakoukro la-Limité","","","","5.358175","-3.442097",""
"Koukourandoumi","","","","5.517139","-3.177192",""
"Maubert","","","","5.485162","-3.250089",""
"Sanhouman","","","","5.398165","-3.140697",""
"Toliesso","","","","5.5","-2.9",""
"Toumanguié Sodepalm Deux","","","","5.355224","-3.3822699",""
"Toumanguié Sodepalm Trois","","","","5.356333","-3.348203",""
"Toumanguié Sodepalm 1","","","","5.370192","-3.38685",""
"Toumanguié","","","","5.327031","-3.323744",""
"JACOB Village","","","","6.3270522","-5.524023",""
"Dougbo","","","","6.495691","-5.6804818",""
"Niamien-Konankro","","","","6.5673956","-5.5940556",""
"Yadio Kouassikro","","","","6.9623853","-4.9299287",""
"Diaakro","","","","6.9810024","-4.9475352",""
"Ouaouakro","","","","6.9939653","-4.9587078",""
"Kouassi Afflékro","","","","7.011544","-4.9673899",""
"Owouekro","","","","7.047572","-4.9715677",""
"Ngouimbo","","","","7.0683211","-4.950963",""
"Assoko yaodjekro","","","","7.0830393","-4.9930968",""
"Aboblakro","","","","7.0914994","-4.9800319",""
"Adikro","","","","6.9288272","-4.9449498",""
"Nékro","","","","6.9110877","-4.9410085",""
"Miné Kouadiokro","","","","6.9578321","-4.8930898",""
"Konankékrekro","","","","6.9680229","-4.8930603",""
"Pangbassou","","","","6.9866363","-4.9118315",""
"Bognankro","","","","7.0105178","-4.8992703",""
"Galébo","","","","7.0341108","-4.9245184",""
"Yagbabo Kanango","","","","7.0446304","-4.9214851",""
"Kossou","","","","6.9594899","-4.9715383",""
"Koffi Ngonankro","","","","6.9990361","-5.0057161",""
"Bongobo","","","","7.0209537","-5.0392591",""
"Karimso","","","","6.678379","-5.8812671",""
"Proziblanfla","","","","6.6849076","-5.8766663",""
"Konéfla","","","","6.8153525","-5.7770469",""
"Suéfla","","","","6.8424752","-5.6848428",""
"Duafla","","","","6.7532719","-5.9407925",""
"Biégon","","","","6.7958869","-6.0236508",""
"Blanoufla","","","","6.7946805","-6.0380022",""
"Kangréta","","","","6.7994663","-6.0423984",""
"Bantifla","","","","6.7477931","-6.1106439",""
"Iribafla","","","","6.7294201","-6.1172716",""
"Zan robert","","","","6.6118465","-5.9973178",""
"Broniozra","","","","6.9517731","-5.9370715",""
"Bononbizehitafla","","","","6.951741","-5.9230336",""
"Souroulaye","","","","6.9554238","-5.8990275",""
"Akowuébo","","","","6.9443881","-5.8744018",""
"Nangrékro","","","","6.9286701","-5.8608142",""
"Ndenoukro","","","","6.9016333","-5.8465993",""
"Niamayo","","","","6.6490912","-6.190625",""
"Bidiahouan","","","","6.6159964","-6.2384693",""
"Bolia","","","","6.5198226","-6.3005222",""
"Balam","","","","6.5089013","-6.2919032",""
"Niakio","","","","6.5293508","-6.3136001",""
"Dahira","","","","6.541694","-6.3210674",""
"Lababra","","","","6.6608145","-6.4210693",""
"Bougouloboua","","","","6.5473802","-6.3333861",""
"Zouzoua","","","","6.5609371","-6.3536222",""
"Louoboua","","","","6.5775103","-6.3715935",""
"Guéfra","","","","6.649541","-6.5472217",""
"Zuzua","","","","6.6234891","-6.4779532",""
"Zokrodépié","","","","6.6308682","-6.4464873",""
"Makua","","","","6.6466599","-6.4345346",""
"Békora","","","","6.6372469","-6.4402646",""
"Badouboua","","","","6.6874372","-6.4330709",""
"Lagozoan","","","","6.6955432","-6.4353011",""
"Za","","","","6.7153722","-6.4346787",""
"Débéguhé","","","","6.7840847","-6.4016656",""
"Séria","","","","6.7823588","-6.3930396",""
"Zaragoua","","","","6.7928601","-6.4003368",""
"Yépeuza","","","","6.8000343","-6.4000028",""
"Bokora","","","","6.8178055","-6.4278436",""
"Bolia","","","","6.7712638","-6.3980754",""
"Digba","","","","6.759177","-6.4104131",""
"Guédéguhé","","","","6.7556381","-6.4273417",""
"Tchébloguhé","","","","6.6930513","-6.4887461",""
"Gokra (Kraka)","","","","6.6871976","-6.58232",""
"Biéguhé II","","","","6.7166875","-6.5842366",""
"Kékégoza","","","","6.7757085","-6.5510318",""
"Brakaguhé","","","","6.8002872","-6.548259",""
"Békipréa","","","","6.827323","-6.4846696",""
"Zoboua","","","","6.7018978","-6.5569474",""
"Liguéguhé","","","","6.6892902","-6.6010484",""
"Brohouan","","","","6.7675707","-6.5131095",""
"Ziguédia","","","","6.7559837","-6.5194561",""
"Guédékipréa","","","","6.7264869","-6.5437475",""
"Guédiboua (Gossa)","","","","6.7344304","-6.5288452",""
"Krikoréa II; Krinkoréa","","","","6.7055323","-6.6255718",""
"Yokoréa II","","","","6.7047177","-6.6469865",""
"Loboguiguia","","","","6.8421403","-6.5963583",""
"Keibla","","","","6.8483336","-6.5787378",""
"Bébouo","","","","6.8006578","-6.2405846",""
"Sibouo","","","","6.7926961","-6.256765",""
"Bébouo-Sibouo","","","","6.8206996","-6.240575",""
"Bozi Satmaci","","","","6.8807116","-5.5839603",""
"Hallanikro","","","","6.8528636","-5.6417653",""
"Zaguiguia","","","","6.9181866","-6.4564125",""
"Guéya","","","","6.9436328","-6.4638561",""
"Zakoua","","","","6.8017333","-6.452107",""
"Gbétitapéa","","","","6.7900058","-6.4509252",""
"Zégata -Yaouré","","","","6.9427032","-5.5840094",""
"Tuankro","","","","6.9547529","-5.584191",""
"Patizia","","","","6.9742313","-5.5362838",""
"Mahounou-Akoué","","","","6.9536962","-5.3793438",""
"Amonkro","","","","6.9711505","-5.4257696",""
"Attrénou","","","","6.9697552","-5.4300944",""
"Bocabo","","","","6.9966492","-5.4341657",""
"Allai-Yaokro","","","","6.9772077","-5.4955858",""
"Kouakougnanou","","","","6.9996739","-5.5115989",""
"Ailey","","","","6.9682444","-5.5085676",""
"Degbézéré","","","","6.9885282","-5.6560092",""
"Ouanzanou","","","","6.9961757","-5.6516984",""
"Ndénou","","","","7.0062557","-5.6438714",""
"Zérifla","","","","7.6796395","-5.9898735",""
"Gouédéfla","","","","7.7156383","-6.0010251",""
"Dyéifla","","","","7.7229453","-5.99985",""
"Gounga","","","","7.7357189","-5.9994335",""
"Soungasso","","","","8.019324","-6.1569065",""
"Karamokola","","","","8.1008413","-6.1825516",""
"Diénédian","","","","8.081816","-6.1239622",""
"Sokourala","","","","8.0697774","-6.1632574",""
"Konotou","","","","8.0680694","-6.1548171",""
"Manyérékoro","","","","8.069914","-6.0899027",""
"Tiéma","","","","8.0210865","-6.1092558",""
"Fizanlouma","","","","8.033204","-6.085623",""
"Tiérouma","","","","7.8860847","-5.9706404",""
"Korokopla","","","","7.8830565","-5.9666406",""
"Bourébo","","","","7.7168897","-5.7218627",""
"Kekré-Kouakoukro","","","","7.6700556","-4.9042036",""
"Kouadianikro","","","","7.6299081","-4.7501283",""
"Kpindikro","","","","7.6266353","-4.77413",""
"Bopri","","","","7.6308962","-4.780422",""
"Kplonou","","","","7.5716828","-4.7063852",""
"Gbangbossou","","","","7.5410947","-4.819512",""
"Gnrinkiro","","","","7.5236961","-4.8147796",""
"Djamalakro","","","","7.6163403","-4.8250016",""
"Déblékro","","","","6.8704699","-4.4804598",""
"Dida","","","","6.9028564","-4.4716223",""
"Yapi-Kouamékro","","","","7.0519508","-4.297877",""
"Kpebo Ya Koffikro","","","","7.2843832","-4.7170839",""
"Afféré 1","","","","6.9101219","-4.0743964",""
"Allangbakro","","","","6.7530805","-4.4119934",""
"Kouakro","","","","6.6528199","-4.4375659",""
"Adouakouakro","","","","6.607303","-4.428286",""
"Assarékro","","","","6.5592154","-4.4152551",""
"Ehuikro","","","","6.5320761","-4.4170872",""
"Diékadiokro","","","","6.4956033","-4.4106103",""
"Abiati","","","","5.289836","-3.170688",""
"Aby","","","","5.305022","-3.16916",""
"Allakro","","","","5.2816608","-2.9124443",""
"Angboudjou","","","","5.154078","-3.207181",""
"Anze Assahoun","","","","5.115803","-3.180756",""
"Assinie France","","","","5.1266017","-3.2757828",""
"Attiékro","","","","5.255126","-2.974819",""
"Bernoikro","","","","5.271724","-2.97953",""
"Diemissikro","","","","5.265935","-2.974557",""
"Dingakono","","","","5.2078345","-3.0852361",""
"Ebouado Deux","","","","5.154716","-3.259462",""
"Ebouinba","","","","5.151631","-3.112648",""
"Ehania-V2","","","","5.2607039","-2.9731199",""
"Eliman","","","","5.23756","-3.203793",""
"Gaoussoukro","","","","5.248399","-2.971161",""
"Malamalakro","","","","5.243708","-2.97063",""
"Mama","","","","5.123493","-3.170116",""
"Mbonhouin","","","","5.224858","-3.203996",""
"Mbrati","","","","5.156105","-3.14517",""
"Ono","","","","5.1275617","-3.1458866",""
"Allowéuré","","","","5.266374","-3.438851",""
"Assomlan","","","","5.200388","-3.295546",""
"Bobo","","","","5.29399","-3.410689",""
"Dadiékro","","","","5.306813","-3.390022",""
"Djiminikoffikro","","","","5.286721","-3.453532",""
"Etuéssika","","","","5.181431","-3.320432",""
"Fouadé","","","","5.2313953","-3.397596",""
"Galoua","","","","5.198712","-3.306164",""
"Kacoukro","","","","5.296049","-3.377518",""
"Kon","","","","5.219663","-3.387564",""
"Mélékoukro","","","","5.200733","-3.318544",""
"Roa","","","","5.29763","-3.330477",""
"Abdoulayékro","","","","5.535595","-3.559399",""
"Adihao","","","","5.28641","-3.615216",""
"Akroaba Akoudjekoa","","","","5.415202","-3.507017",""
"Amicoukro","","","","5.54986","-3.535534",""
"Bato","","","","5.356887","-3.578815",""
"Galoua","","","","5.323757","-3.474745",""
"Ingarako","","","","5.366219","-3.564545",""
"Kladikro","","","","5.428007","-3.459861",""
"Larabia","","","","5.339079","-3.457405",""
"Onioneouango","","","","5.3335847","-3.5512247",""
"Ono Salci","","","","5.3816057","-3.5631527",""
"Ono 14","","","","5.4582321","-3.4645724",""
"Tchantchévè","","","","5.310973","-3.557198",""
"Vitré Deux","","","","5.278024","-3.800245",""
"Vitré Un","","","","5.241953","-3.77139",""
"Wéhou","","","","5.5239644","-3.4481277",""
"Bénanou","","","","7.0642069","-3.9978987",""
"Kayabo","","","","6.6305575","-4.2512488",""
"Akakro","","","","6.6144085","-4.2337287",""
"Ngohinou","","","","6.5453345","-4.506586",""
"Diangobo","","","","6.5222249","-4.5371899",""
"Diékabo","","","","6.5089464","-4.5196292",""
"Anyen","","","","6.5030685","-4.4884668",""
"Agoua","","","","6.4956829","-4.4773984",""
"Angamaki","","","","6.4912695","-4.4438345",""
"Amoikro","","","","6.4135773","-4.6644802",""
"Kongokro","","","","6.4789646","-4.6340434",""
"Akéssémossou","","","","6.6153614","-4.7001102",""
"Kouadiotékro","","","","6.5313044","-4.7696903",""
"Yobouébo","","","","6.5709161","-4.7692198",""
"Ettien-Tiémélékro","","","","6.5208367","-4.6310218",""
"Tontonou-Koffikro","","","","6.5124342","-4.8633956",""
"Didablé","","","","6.4307454","-4.8193964",""
"Didayakro","","","","6.413599","-4.8192236",""
"Andou Mbatto","","","","5.404886","-3.656998",""
"Aprémédji","","","","5.455082","-3.703553",""
"Ingrakon","","","","5.435764","-3.666984",""
"Ngokro","","","","5.359589","-3.639545",""
"Adjékro","","","","5.53393","-3.566865",""
"Alosso I","","","","5.6542001","-3.5493953",""
"Anonkro","","","","5.575678","-3.549317",""
"Bakarikoua","","","","5.519773","-3.851893",""
"Elomoudjé","","","","5.52742","-3.550112",""
"Kouamékro","","","","5.52458","-3.577713",""
"Koutoukro","","","","5.6172389","-3.5834889",""
"Madina","","","","5.563786","-3.520634",""
"Mafia","","","","5.5358484","-3.8500459",""
"Maninkoua","","","","5.5398643","-3.6794084",""
"Monga","","","","5.476233","-3.660699",""
"Montézo","","","","5.485559","-3.740269",""
"Yaokro","","","","5.551305","-3.570605",""
"Abroki","","","","5.545381","-3.633778",""
"Abrotchi","","","","5.542972","-3.634734",""
"Angoubékoua","","","","5.67193","-3.910179",""
"Essanoua","","","","5.645218","-3.926213",""
"Mbohouin","","","","5.5672609","-3.6393019",""
"Nsakoua","","","","5.641043","-3.932248",""
"Yabo Sébakoua","","","","5.674496","-3.909703",""
"Yakassé Komoé","","","","5.5633988","-3.6145675",""
"Yapokoua","","","","5.766689","-3.692165",""
"Bobolilié","","","","5.7371352","-5.9166961",""
"Niakoblognoa","","","","5.711557","-5.9775692",""
"Abouabou","","","","5.293964","-3.907716",""
"Adakié","","","","5.545573","-4.166948",""
"Adaromé","","","","5.580433","-4.190488",""
"Akwè Djèmin","","","","5.3457539","-3.8721706",""
"Nouveau camp CRNA","","","","5.280344","-3.835772",""
"Akakro","","","","5.366298","-3.824586",""
"Akoyaté","","","","5.386254","-3.847329",""
"Assokro","","","","5.439466","-3.911913",""
"Atsin","","","","5.435606","-3.908009",""
"Attinguié","","","","5.467386","-4.185492",""
"Azaguié Blida","","","","5.525609","-4.090801",""
"Bago","","","","5.492848","-4.268679",""
"Bokate","","","","5.322667","-3.833421",""
"Brégbo","","","","5.304061","-3.821878",""
"Halfo","","","","5.578708","-4.072823",""
"Kaotri","","","","5.289091","-3.847508",""
"Kofakoua","","","","5.427509","-3.926063",""
"Aghien-Télégraphe","","","","5.415939","-3.848106",""
"Mafiblé 2","","","","5.27162","-3.848622",""
"Benogosso","","","","5.276125","-3.89054",""
"Mbonouan","","","","5.551846","-4.229478",""
"Mobio","","","","5.364185","-3.908794",""
"Mpody","","","","5.577578","-4.227169",""
"M’Brago 1","","","","5.533377","-4.219351",""
"M’Brago-II","","","","5.538384","-4.198745",""
"Ogriville","","","","5.36627","-3.9128",""
"Sebia Yao","","","","5.324387","-3.837342",""
"Sebia Yao","","","","5.329145","-3.841133",""
"Palmafrique – V2","","","","5.439557","-4.127799",""
"Tapékro","","","","5.444455","-3.916824",""
"Thomasset","","","","5.581748","-4.075437",""
"Yace","","","","5.435053","-3.876487",""
"Yapokoi","","","","5.5202051","-4.0503927",""
"Abadjin-Doumé","","","","5.309618","-4.146694",""
"Abadjin-Kouté","","","","5.330169","-4.152255",""
"Achanti","","","","5.229067","-4.160403",""
"Adiapo Moronou","","","","5.3369736","-4.1851255",""
"Adiapoto-I","","","","5.314307","-4.194963",""
"Adiapoto-II","","","","5.306071","-4.185875",""
"Adiapoté Té","","","","5.308886","-4.175854",""
"Adonkoi","","","","5.413786","-4.210075",""
"Ahoussou Yao","","","","5.389789","-4.223876",""
"Allokoi","","","","5.397383","-4.14884",""
"Anno","","","","5.5256967","-4.4076306",""
"Ayi Maman","","","","5.227337","-4.173352",""
"Ayou Oua","","","","5.359439","-4.18665",""
"Bimbresso","","","","5.3193265","-4.1547255",""
"Diéké","","","","5.23205","-4.136151",""
"Ekouran","","","","5.233958","-4.122926",""
"Kodiako","","","","5.505204","-4.33013",""
"Koffikro","","","","5.290732","-4.243917",""
"Koloukro","","","","5.399742","-4.226692",""
"Adonkoi 2","","","","5.4081","-4.222634",""
"Labion","","","","5.224793","-4.195051",""
"Laka","","","","5.230673","-4.146514",""
"Le Nieky","","","","5.4096369","-4.2698589",""
"Mbrou","","","","5.594744","-4.363343",""
"Mérégougnéré","","","","5.221975","-4.215793",""
"N’Djem","","","","5.2700213","-4.2377878",""
"Niansoukro","","","","5.457911","-4.297293",""
"Niéky Bonjour","","","","5.411994","-4.261816",""
"Nonkouagnon","","","","5.463051","-4.268174",""
"Ouhoua","","","","5.22148","-4.219756",""
"Seydou Kamara","","","","5.3498275","-4.1801171",""
"Anguédédou","","","","5.404122","-4.203072",""
"Songon Dagbé","","","","5.322373","-4.186838",""
"Songon Gare","","","","5.321441","-4.193962",""
"Songon-Agban Attié II","","","","5.354298","-4.244421",""
"Songon-Té","","","","5.305085","-4.249843",""
"Abréby","","","","5.220744","-4.23314",""
"Yao Niaba","","","","5.393724","-4.225554",""
"Yao","","","","5.389889","-4.226076",""
"Adjoufou","","","","5.284693","-3.926189",""
"Atchi","","","","5.239459","-4.078677",""
"Bagouda","","","","5.236834","-4.109571",""
"Bogui","","","","5.235076","-4.115269",""
"Issamboua","","","","5.24155","-4.068866",""
"Lezou Aman","","","","5.2428248","-4.0595357",""
"Mbakré","","","","5.244179","-4.045105",""
"Niaba","","","","5.2678673","-4.0991425",""
"Sié","","","","5.283698","-3.910856",""
"Yesso","","","","5.235667","-4.11085",""
"Abobo Doumé","","","","5.3152057","-4.0359781",""
"Locodjro","","","","5.3264137","-4.0411198",""
"Ahéoua","","","","6.359473","-3.859032",""
"Abié Ayalo","","","","5.916858","-3.938519",""
"Abié","","","","5.8625425","-3.9292151",""
"Adokoi","","","","6.009994","-3.781543",""
"Agbaou","","","","6.34136","-3.854327",""
"Akoudzin","","","","6.0217793","-3.9728056",""
"Ananguié","","","","6.222987","-3.773334",""
"Andé","","","","6.041725","-3.953757",""
"Aouabo","","","","6.239584","-3.79218",""
"Apiadji","","","","5.945511","-3.838785",""
"Bacon","","","","6.356025","-3.910174",""
"Bassadzin","","","","5.937405","-3.738194",""
"Bessedi Anon","","","","5.925848","-3.994111",""
"Bonahouin","","","","6.564741","-3.760663",""
"Bouapé","","","","6.262391","-3.814569",""
"Boudépé","","","","5.9838429","-3.9869468",""
"Diapé","","","","6.014198","-3.927264",""
"Diasson","","","","5.971517","-3.727588",""
"Lobo-Akoudzin","","","","5.85088","-3.822914",""
"Massandji","","","","6.025115","-3.816498",""
"Miadzin","","","","6.044325","-3.906895",""
"Moapé","","","","6.188878","-3.803692",""
"Mopé","","","","5.896747","-3.983324",""
"Nguessankoa","","","","5.938748","-3.94116",""
"Nia","","","","6.009503","-3.725457",""
"Nkoupé","","","","6.072899","-3.935336",""
"Yadio","","","","6.4092758","-3.8837907",""
"Laourébo","","","","6.510279","-4.7962475",""
"Sakassou","","","","6.5490162","-4.824351",""
"Akuvikro","","","","6.5522197","-4.8553673",""
"Loukouyakro","","","","6.5782839","-4.8752243",""
"Abévé","","","","5.9105208","-4.744701",""
"Kanga Nianzè","","","","5.9316981","-4.7921142",""
"Niandia Mafia","","","","5.9170027","-4.7965736",""
"Djinandjikro","","","","6.736308","-4.4896504",""
"Assika-N'Ziblékro","","","","6.8676674","-4.3213246",""
"Bangokro","","","","6.7563127","-4.5550944",""
"Kouadianikro","","","","6.7741312","-4.5406761",""
"Aboudé Mendeké","","","","5.897563","-4.534843",""
"Amanikro","","","","6.1780268","-4.6375413",""
"Ahiérémou","","","","6.217769","-4.930117",""
"Ahouaty","","","","6.1096","-4.973039",""
"Akoungou","","","","5.6653333","-4.7807751",""
"Aké-Béfiat","","","","5.665225","-4.175436",""
"Amangbo","","","","6.0207785","-4.3686847",""
"Amani Ménou","","","","6.083595","-4.983302",""
"Ananguié","","","","6.0779009","-4.4711723",""
"Andepo","","","","5.946227","-4.424831",""
"Anediou Massi","","","","5.572378","-4.489475",""
"Aoua","","","","5.793798","-4.812009",""
"Arraguié","","","","6.013167","-4.1455987",""
"Assabou","","","","6.255152","-4.930189",""
"Assareobou","","","","5.566452","-4.4647927",""
"Ottopé 2","","","","5.697891","-4.317103",""
"Ottopé 1","","","","5.699865","-4.299959",""
"Attinguié","","","","6.066942","-4.5515715",""
"Ellibou-Badasso","","","","5.6867333","-4.5115118",""
"Bakanou B","","","","5.61565","-4.613744",""
"Bakriokronou","","","","5.578391","-4.442256",""
"Banguié I","","","","5.901594","-4.200537",""
"Batché Yedé","","","","5.570839","-4.49226",""
"Bonikro","","","","6.386756","-5.22592",""
"Botindé","","","","5.778095","-4.755241",""
"Broubrou","","","","5.724767","-4.823703",""
"Bécédi","","","","5.641668","-4.582164",""
"Canfo","","","","5.903215","-4.351801",""
"Taboitien","","","","5.9381635","-4.8398663",""
"Dengbé","","","","5.707607","-4.289857",""
"Douo","","","","5.547569","-4.499247",""
"Déguié","","","","5.9903355","-4.4938807",""
"Ekissi","","","","5.9380334","-4.3053804",""
"Elévi","","","","5.651593","-4.192318",""
"Ery-Makouguié I","","","","5.890616","-4.194041",""
"Ery-Makouguié II","","","","5.904576","-4.170836",""
"Galégoua","","","","6.236376","-4.828723",""
"Gbalekro","","","","5.9496464","-4.2781488",""
"Gouabo","","","","5.997409","-4.320711",""
"Hiemien-Migue","","","","6.2774865","-4.6767427",""
"Kokoti-Kouamékro","","","","6.2862546","-5.0404401",""
"Kotiéssou","","","","6.178267","-5.061234",""
"Kouankro","","","","5.983646","-4.48266",""
"Koyékro","","","","6.152527","-4.745674",""
"Ahiroa","","","","6.1582328","-4.6605288",""
"Kravassou","","","","6.260719","-4.714565",""
"Léléblé","","","","6.233107","-5.22341",""
"Mbattra","","","","5.965259","-4.132402",""
"Mbrimbo","","","","6.0269727","-4.8754824",""
"Monso Edi","","","","5.781112","-4.365126",""
"Moofoué","","","","6.11627","-4.738679",""
"M’bérié","","","","6.0281878","-4.1324587",""
"Ndénou","","","","6.170335","-5.029668",""
"Odogui","","","","5.626819","-4.202984",""
"Offa","","","","5.922415","-4.34689",""
"Ossohou","","","","5.5678223","-4.3621732",""
"Ouanguié","","","","5.863779","-4.229573",""
"Oulenzoué","","","","6.1484639","-4.2724845",""
"Oussou","","","","6.260572","-4.932716",""
"Ouéguié","","","","5.822858","-4.224685",""
"Poguié","","","","6.061214","-4.090034",""
"Racine","","","","5.992927","-4.26434",""
"Sahoua","","","","6.322042","-5.17464",""
"Singrobo","","","","6.093083","-4.920938",""
"Sokrogbo","","","","6.0482565","-4.9619853",""
"Séa Yambogo","","","","5.936569","-4.312482",""
"Tokohiri","","","","6.374267","-5.2006",""
"Tollakro","","","","6.367423","-5.174354",""
"Yaobou","","","","5.711503","-4.412738",""
"Abraco","","","","5.268886","-4.463005",""
"Adjacouti","","","","5.186416","-4.562286",""
"Adjué","","","","5.187621","-4.5478",""
"Adoumangan","","","","5.2056672","-4.3885432",""
"Agbaillé","","","","5.300681","-4.51631",""
"Akakro","","","","5.4778766","-4.5094319",""
"Ahua","","","","5.200339","-4.433045",""
"Akradio","","","","5.437189","-4.363534",""
"Akrou","","","","5.208137","-4.357199",""
"Allaba","","","","5.283662","-4.348592",""
"Armébé","","","","5.346931","-4.337793",""
"Avagou","","","","5.211318","-4.32612",""
"Bodou","","","","5.309811","-4.464851",""
"Bohn","","","","5.315776","-4.494811",""
"Bouboury","","","","5.338713","-4.459605",""
"Débrimou","","","","5.367161","-4.390176",""
"Gbougbo","","","","5.302285","-4.376853",""
"Grand-Jacques","","","","5.196926","-4.467526",""
"Kaka","","","","5.276984","-4.488948",""
"Lecré Oboka","","","","5.288941","-4.317462",""
"Mopoyem","","","","5.318593","-4.464904",""
"Ngatty","","","","5.2941507","-4.3429626",""
"N’Doumikro","","","","5.4694512","-4.5024167",""
"Opoyounem","","","","5.404085","-4.567352",""
"Orbaff","","","","5.401569","-4.413984",""
"Vieil Aklodj","","","","5.418658","-4.352415",""
"Ousrou","","","","5.409167","-4.514444",""
"Pass","","","","5.312671","-4.412785",""
"Sassako-Bégini","","","","5.216453","-4.277362",""
"Tabot Avagou","","","","5.259157","-4.329171",""
"Tiaha","","","","5.294268","-4.483189",""
"Vieux Ousrou","","","","5.415841","-4.53606",""
"Yassap A","","","","5.418617","-4.426103",""
"Yassap B","","","","5.406295","-4.434223",""
"Youhoulil","","","","5.422769","-4.487088",""
"Cosrou","","","","5.319061","-4.658889",""
"Nigui Assoko","","","","5.266925","-4.591106",""
"Nigui Nanon","","","","5.28087","-4.612762",""
"Nigui Saff","","","","5.2495299","-4.6147201",""
"Petit Badien","","","","5.256697","-4.639878",""
"Tiagba","","","","5.2606422","-4.7230991","4000"
"Adessé","","","","5.168175","-4.698866",""
"Amessandon","","","","5.1486874","-4.8336422",""
"Avadivry","","","","5.1605314","-4.7286719",""
"Azou","","","","5.2050188","-4.7453199",""
"Bahuama","","","","5.181529","-4.601941",""
"Béhiré","","","","5.1915333","-4.7283834",""
"Diatéké","","","","5.148767","-4.881152",""
"Emangbo","","","","5.466186","-4.578112",""
"Kouvé","","","","5.187212","-4.718746",""
"Mbokrou","","","","5.18488","-4.576363",""
"Nandibo 1","","","","5.2866923","-4.9244724",""
"Nianda","","","","5.5402998","-4.8950009",""
"Niangoussou","","","","5.15867","-4.757166",""
"Noumouzou","","","","5.14683","-4.913314",""
"Tabouttou","","","","5.191102","-4.740045",""
"Tamabo","","","","5.414899","-4.8190879",""
"Tiébiéssou","","","","5.3542415","-4.8901673",""
"Tiémé","","","","5.218952","-4.645545",""
"Téfrédji","","","","5.214795","-4.69807",""
"Vieux Badien","","","","5.365337","-4.617977",""
"George-Town","","","","4.6081169","-7.5393062",""
"Prollo","","","","4.4319456","-7.5387316",""
"Pata","","","","4.471805","-7.555237",""
"Boké","","","","4.404889","-7.375832",""
"Boubré ancien village","","","","4.3646046","-7.4850176",""
"Béhouin","","","","4.3816248","-7.4169683",""
"Dégné","","","","4.385684","-7.404197",""
"Gnakalipo","","","","4.3746361","-7.4432019",""
"Kleroké","","","","4.3779326","-7.4312683",""
"Soublaké","","","","4.3701395","-7.4553775",""
"Souké","","","","4.3801891","-7.4221332",""
"Yonaké","","","","4.3882708","-7.3996228",""
"Tatou","","","","4.586707","-7.382479",""
"BESREKE","","","","4.577859","-7.312783",""
"Béwé","","","","4.554226","-7.3718108",""
"Donié","","","","4.6858254","-7.4546322",""
"DJOUROU","","","","4.6643358","-7.3429026",""
"Gliké","","","","4.5097123","-7.2975758",""
"Gnagipo","","","","4.493176","-7.235751",""
"Gninaoloké","","","","4.6267594","-7.4030809",""
"Boubélé","","","","4.4868947","-7.2444434",""
"Iratéké","","","","4.7096688","-7.2572949",""
"Irodioké","","","","4.5452631","-7.3226739",""
"Kabiadioké","","","","4.5078629","-7.3072386",""
"Kanin","","","","4.4809703","-7.3116656",""
"Hyrré","","","","4.6496836","-7.3995868",""
"Déhié","","","","4.6370091","-7.3464067",""
"Pataké","","","","4.6180594","-7.242826",""
"Pounié 1","","","","4.53998","-7.3799076",""
"Tolou","","","","4.4709499","-7.2498535",""
"Wadébo","","","","4.5050699","-7.381511",""
"OUEDJIRE","","","","4.5622755","-7.3163063",""
"Ménéké","","","","4.5084689","-7.2797919",""
"Kouakou Koffikro","","","","7.1356184","-4.8390562",""
"Nda Akissikro","","","","7.1203364","-4.8053443",""
"Attékro","","","","7.166626","-4.8040456",""
"Nangokro","","","","7.126339","-4.7261829",""
"Alokokro","","","","7.1890303","-4.8441752",""
"Brou Totokro","","","","7.1650396","-4.8626034",""
"Broukro-Totokro 1","","","","7.1574505","-4.8670687",""
"Langui Kouadiokro","","","","7.1324318","-4.8756456",""
"Kouamé Akaffoukro","","","","7.1182556","-4.8625216",""
"Didiébou","","","","7.1239529","-4.8782587",""
"Kouakou Ebenikro","","","","7.0049955","-4.748616",""
"Bodo (Ahissan Bodokro)","","","","7.0741925","-4.7978189",""
"Groyaokro","","","","7.0690457","-4.7917934",""
"Ti-ngan Okoukro","","","","7.0231333","-4.8421237",""
"Kongué Kouadiokro","","","","7.0301359","-4.843415",""
"Glo Djekro","","","","7.2019112","-4.833207",""
"Labo","","","","7.2682384","-4.8668861",""
"Mafé","","","","7.343647","-5.0512936",""
"Ngom","","","","7.3667488","-5.0654075",""
"Allialikro","","","","7.3816434","-5.0405108",""
"Kongonou","","","","7.3272738","-5.0947448",""
"Bopri","","","","7.337145","-5.1022905",""
"Mbouédio","","","","7.217352","-5.1493567",""
"Kofiko","","","","7.196787","-5.1092065",""
"Assengou","","","","7.2072231","-5.0317462",""
"Bengbré","","","","7.3983696","-5.1446412",""
"Assabonou","","","","7.262685","-5.1058938",""
"Akoye Ndénou","","","","7.2384424","-5.071056",""
"Krou Okoukro","","","","7.3577247","-5.0248425",""
"Gomo","","","","7.4239254","-5.071979",""
"Aounyassou","","","","7.4310386","-5.0786516",""
"Kouakakro","","","","7.4465965","-5.0924602",""
"Kofikro","","","","7.461184","-5.1041413",""
"Adiassou","","","","7.4751163","-5.1003837",""
"Mébo","","","","7.4775891","-5.0874846",""
"Ndouakro","","","","7.480246","-5.125273",""
"Kanoua","","","","7.5257026","-5.1261549",""
"Atahou","","","","7.5559817","-5.0993108",""
"Hannié","","","","4.7031584","-6.96662",""
"Klotou","","","","4.5549241","-7.1876485",""
"Oulibio","","","","4.6456865","-7.0783331",""
"TEKOUEBO","","","","4.5448844","-7.1719467",""
"Oueoulo","","","","4.6666472","-7.0832066",""
"Ibo","","","","4.6075222","-7.2072034",""
"Irépwé","","","","4.5895956","-7.2017352",""
"NEHONIE","","","","4.550753","-7.2188785",""
"Pitiké","","","","4.5219136","-7.1844609",""
"Iboke wapo","","","","4.5987888","-7.2387951",""
"Ouéléké","","","","4.5341023","-7.2143618",""
"Dahoua","","","","4.595798","-6.983065",""
"VILLAGE ROC","","","","4.6195401","-6.9633317",""
"MANI BERREBY","","","","4.57194","-7.020154",""
"Langhassou","","","","7.7967817","-4.8661972",""
"Adikro","","","","7.7571672","-4.8520529",""
"Adikro-Foundi","","","","7.7509223","-4.8517087",""
"Somalassou","","","","7.7316464","-4.8287171",""
"Yapo Kouakoukro","","","","7.7300456","-4.8945296","500"
"Koblékro","","","","7.7034971","-4.9240426",""
"Tanou Sakassou","","","","7.6783578","-4.9319519",""
"Taki","","","","4.695568","-6.707923",""
"Dahio","","","","4.7743762","-7.530179",""
"Gniniourou","","","","4.7911616","-7.5370383",""
"Ibo","","","","4.7795741","-7.5323223",""
"Ngokro","","","","7.2685516","-5.0317248",""
"Bekouenkro","","","","7.2570311","-5.0420675",""
"Djé Nzoukre","","","","7.2232465","-4.9890809",""
"Ahoungnanou","","","","7.2014447","-4.9262918",""
"Asse Djekro","","","","7.1490742","-4.9524464",""
"Alaou","","","","7.1412197","-5.0348515",""
"Gbegbessou","","","","7.1078051","-4.9402916",""
"Assokro Ngressankro","","","","6.938847","-4.8932227",""
"Konankofikro","","","","6.9705075","-5.2452689",""
"Ndénou","","","","6.9705404","-5.2565025",""
"Attien Kouassikro","","","","7.0987655","-4.8716138",""
"Kouassi Nguessankro","","","","7.0600023","-4.8496295",""
"Nglobo","","","","7.0404934","-4.8427204",""
"Anouanzé Bokaha","","","","7.0086597","-4.8421933",""
"Yalombi Kouassékro","","","","6.9968666","-4.8463285",""
"Andokoi Kokrékro","","","","6.982503","-4.8393864",""
"Aman Pokoukro","","","","6.9415705","-4.7720939",""
"Kangrassou","","","","6.9367214","-4.8330371",""
"Nofoussou","","","","6.8317064","-4.711109",""
"Nziéssiéssou","","","","6.8266356","-4.7024066",""
"Kayabo","","","","6.8218454","-4.6731153",""
"Totokro","","","","6.8037113","-4.6204112",""
"Dani Ahoussoukro","","","","6.7977009","-4.7084148",""
"Adiakou Konankro","","","","6.772441","-4.6999117",""
"Tromabo","","","","6.7211427","-4.7089565",""
"Diakoubikro","","","","6.9404185","-4.7014611",""
"Bokakro","","","","6.9454623","-4.7021105",""
"Diangokokokro","","","","6.9546673","-4.6973587",""
"Langba","","","","6.9781763","-4.6869646",""
"Bokakro","","","","6.9297604","-4.6654275",""
"Koubikro","","","","6.9347949","-4.6401608",""
"Mbéri","","","","6.9580255","-4.6245825",""
"Tékikro","","","","7.0064531","-4.6215851",""
"Konan Lékikro","","","","6.9019312","-4.6302359",""
"Gazibouo","","","","6.3659822","-6.4910746",""
"Korébouo 2","","","","6.4445739","-6.3073204",""
"Loukouayo","","","","6.4598002","-6.2633904",""
"Degaullekro","","","","6.5522586","-6.2120495",""
"Anatolekro","","","","6.5369447","-6.2221502",""
"Yaokro","","","","6.5006174","-6.4637398",""
"Ouandahio","","","","6.4824896","-6.29747",""
"Zikibouo","","","","6.4786737","-6.327609",""
"Broma","","","","6.4837149","-6.38467",""
"Dagourahio","","","","6.4970124","-6.4373285",""
"Souafoué-Kan","","","","7.6728407","-5.5547124",""
"Assakra","","","","7.6941244","-5.4612372",""
"Golikro","","","","7.6706084","-5.4344355",""
"Assékro","","","","7.6697891","-5.4041381",""
"Yrassuénou","","Botro","","7.6926531","-5.3228901",""
"Grovéhio","","","","6.5223648","-6.30411",""
"Koukolaguie","","","","6.4968489","-6.4719876",""
"Pézoan","","","","6.459414","-6.5718106",""
"Dépa","","","","6.445442","-6.5480233",""
"Zéréguhé","","","","6.434477","-6.5376707",""
"Dribouo","","","","6.2720523","-6.3394668",""
"Otéoa","","","","6.2600241","-6.3573955",""
"Gazahio","","","","6.2350381","-6.3582915",""
"Beugrehoa","","","","6.2052804","-6.3384736",""
"Bagasséhoa","","","","6.1945306","-6.3585954",""
"Maiheoua","","","","6.2041953","-6.4594789",""
"Konédougou","","","","6.0394039","-6.6642794",""
"Biséréguhé","","","","6.1496189","-6.5317062",""
"Zakuéoua","","","","6.2502747","-6.5070576",""
"Kolabadoudou","","","","5.7336431","-6.6278337",""
"Robert porte","","","","5.6118668","-6.6012845",""
"Béwé","","","","4.766064","-7.476325",""
"Deblablè","","","","4.8486085","-7.482302",""
"Déhouninké","","","","4.7494935","-7.3925239",""
"Déwaké","","","","4.7784003","-7.478528",""
"Goutouké","","","","4.7364043","-7.3549276",""
"Néplou","","","","4.8274199","-7.3981167",""
"Podwé","","","","4.7304176","-7.3589659",""
"Siahé","","","","4.8797701","-7.4852991",""
"Sétoubé","","","","4.7522422","-7.5029572",""
"Andianou","","","","6.7186411","-4.640544",""
"Tangoumassou","","","","6.7369908","-4.672009",""
"Koffi Aoussoukro","","","","6.7331296","-4.6277004",""
"Aligérikoudiokro","","","","6.7492826","-4.6159834",""
"Booré Akpokro","","","","6.8072885","-4.5639773",""
"Ngassakro","","","","6.8375613","-4.4848479",""
"Kouakoubrouko","","","","6.8310633","-4.4823803",""
"Niamassou","","","","6.7424428","-4.6461317",""
"Bonikouassikro","","","","6.8632591","-4.5492125",""
"Dadié Kouassikro","","","","6.715403","-4.6113602",""
"Bocabo","","","","6.6916039","-4.5919124",""
"Koguinan","","","","6.6773636","-4.5699644",""
"Dida-N'Glossou","","","","6.441135","-4.7463054",""
"Bendressou","","","","6.5569908","-4.956761",""
"Tontonou","","","","6.5533842","-4.9198368",""
"Comékro","","","","6.5911728","-4.8505402",""
"Didakouadiokro","","","","6.4001784","-4.8213062",""
"Assakra","","","","6.3963102","-4.893809",""
"Lomo sud","","","","6.3832417","-4.977822",""
"Godibo","","","","6.2964157","-4.8098419",""
"Karékoa","","","","6.2178178","-4.8254848",""
"Adaou","","","","6.2771511","-4.8830729",""
"Ahouakro","","","","6.1295877","-4.8926053",""
"Assoumoukro","","","","6.4641435","-4.3738058",""
"Gramessabo","","","","6.4556471","-4.3894004",""
"Assié Akpessé","","","","6.4701979","-4.3393231",""
"Ahounan","","","","6.4957199","-4.355662",""
"Tiékou-Carrefour","","","","6.3588941","-4.2864383",""
"Kédjempo","","","","6.2363047","-4.2580151",""
"Brou-M'Po","","","","6.2110647","-4.2468428",""
"Kotimpo","","","","6.1790493","-4.2445995",""
"Banguié 2","","","","6.1739733","-4.3623216",""
"Allany","","","","6.1368849","-4.3343947",""
"Copa","","","","6.2436882","-4.1188889",""
"Duquesnes-Crémone","","","","6.1764612","-3.9071794",""
"Daguikoi","","","","6.2849806","-3.9804818",""
"Asseudji","","","","6.3283983","-3.9361274",""
"Amian Kouassikro","","","","6.4667706","-3.6417438",""
"Assakro","","","","6.5807313","-3.6320563",""
"N'Grakon","","","","6.6150509","-3.6358748",""
"Zonokoi","","","","6.418566","-3.6296096",""
"Adaou","","","","6.8031908","-5.0501942",""
"Abokouamékro","","","","6.8289149","-5.0553271",""
"Gofabo","","","","6.8247952","-5.0893647",""
"Akayaokro","","","","6.7675494","-5.0021215",""
"Lomo-Nord","","","","6.654214","-4.9755152",""
"Tokoréyaokro","","","","6.797468","-4.9745971",""
"Kolodougou","","","","9.0437594","-6.0933409",""
"Kiéré","","","","9.0976947","-6.0611287",""
"Séhémé","","","","9.1771639","-6.0357253",""
"Sakouéllé","","","","9.2326527","-6.0182499",""
"Doka","","","","9.2967282","-6.0118354",""
"Nouho","","","","9.3471116","-6.0562847",""
"Mbala","","","","9.3577772","-6.0726618",""
"Kamara","","","","9.4448837","-6.1298184",""
"M'bya","","","","9.5171894","-6.0452107",""
"Tarato","","","","9.5388966","-5.9967747",""
"Ferké 2","","","","9.2961922","-5.2713147",""
"Kouniguekaha","","","","9.440467","-5.5140418",""
"Sottikro","","","","8.0257747","-4.7414661",""
"Kokoboukro","","","","7.1884368","-4.4187341",""
"Angoakro","","","","7.2884678","-4.4185555",""
"Borou","","","","4.9919666","-6.7775704",""
"Boua","","","","5.0247525","-7.0576968",""
"Digbé","","","","4.715508","-6.67875",""
"Djimoulé","","","","4.7587347","-6.7219663",""
"Detou","","","","4.8256948","-6.9246119",""
"Klo","","","","4.7118873","-7.0892931",""
"Krou","","","","4.714764","-6.68286",""
"Nero-Brousse","","","","4.8058109","-6.9266724",""
"Toboké","","","","4.9573512","-6.7546115",""
"Doulayéko","","","","4.814048","-6.426917",""
"Kounoukou","","","","4.820292","-6.403291",""
"Madié","","","","4.815489","-6.418806",""
"Kpoté","","","","4.8712634","-6.5334669",""
"Monogaga plage","","","","4.805011","-6.445145",""
"Djiro Gnapahio","","","","4.8461045","-6.629844",""
"Petit-Pédro","","","","4.7741828","-6.5537391",""
"Podio","","","","4.8764936","-6.4967659",""
"Popogo","","","","4.780029","-6.509858",""
"Arokpa","","","","4.980016","-6.001686",""
"Neka cité ( hannie)","","","","5.1945339","-7.35278",""
"Balokouya","","","","5.207713","-6.351625",""
"Bassa","","","","4.915159","-6.154042",""
"Niézéko","","","","4.932275","-6.107696",""
"Gnity ecole","","","","5.1285658","-6.5697953",""
"Brogié","","","","4.964444","-6.066094",""
"Bréguiagui","","","","5.248768","-6.3787233",""
"Dabégo","","","","4.995602","-5.973923",""
"Gaoulou","","","","5.033466","-6.151369",""
"Gapé","","","","4.985949","-6.063215",""
"Glouamo","","","","5.1167987","-6.5402854",""
"Godé Tobwo","","","","4.9","-6.183333",""
"Godé","","","","4.903841","-6.171618",""
"Govia","","","","4.90575","-6.165797",""
"Grand Dréwin","","","","4.914172","-6.149344",""
"Kadrokpa 1","","","","4.974261","-6.012216",""
"Koko-Plage","","","","4.968989","-6.029689",""
"Lébléko","","","","4.927497","-6.11813",""
"Niéga","","","","4.8831056","-6.2154362",""
"Nékaounié","","","","5.1463268","-7.3857715",""
